[
  {
    "id": "recnowXGrVV2KthHV",
    "name": "Q01367",
    "lat": 44.0685044,
    "lng": -123.1791411,
    "retailer": "Albertsons",
    "street": "4740 Royal Ave",
    "city": "Eugene",
    "zipPostalCode": "97402",
    "stateProvince": "OR",
    "country": "US",
    "distance": 1598.586131989183
  },
  {
    "id": "recoQDT5lJdehvhjR",
    "name": "Q01724",
    "lat": 44.0865493,
    "lng": -123.1693115,
    "retailer": "WinCo Foods",
    "street": "4275 Barger Dr",
    "city": "Eugene",
    "zipPostalCode": "97402",
    "stateProvince": "OR",
    "country": "US",
    "distance": 1599.3379911317902
  },
  {
    "id": "recfOHNSE6I9SGAgg",
    "name": "Q01305",
    "lat": 44.2291512,
    "lng": -123.2066141,
    "retailer": "Safeway",
    "street": "1755 Ivy St",
    "city": "Junction City",
    "zipPostalCode": "97448",
    "stateProvince": "OR",
    "country": "US",
    "distance": 1599.745610633898
  },
  {
    "id": "recFYxxZog0uDzjfY",
    "name": "Q00946",
    "lat": 44.0483373,
    "lng": -123.1436663,
    "retailer": "Fred Meyer",
    "street": "3333 W 11th Ave",
    "city": "Eugene",
    "zipPostalCode": "97402",
    "stateProvince": "OR",
    "country": "US",
    "distance": 1599.999751451523
  },
  {
    "id": "recfguy09kC5DZ7jO",
    "name": "Q01801",
    "lat": 44.5504023,
    "lng": -123.3087793,
    "retailer": "Safeway",
    "street": "5270 SW Philomath Blvd",
    "city": "Corvallis",
    "zipPostalCode": "97333",
    "stateProvince": "OR",
    "country": "US",
    "distance": 1600.046975662133
  },
  {
    "id": "reczK9UI6Ca6y0RbH",
    "name": "Q01990",
    "lat": 44.0415681,
    "lng": -123.1167084,
    "retailer": "Albertsons",
    "street": "1675 W 18th Ave",
    "city": "Eugene",
    "zipPostalCode": "97402",
    "stateProvince": "OR",
    "country": "US",
    "distance": 1601.2052115644633
  },
  {
    "id": "recwWqFTE5y2mAftP",
    "name": "Q01121",
    "lat": 44.1006567,
    "lng": -123.1283431,
    "retailer": "Albertsons",
    "street": "55 Division Ave",
    "city": "Eugene",
    "zipPostalCode": "97404",
    "stateProvince": "OR",
    "country": "US",
    "distance": 1601.5388878946949
  },
  {
    "id": "recuZ88lXh7AwiPhN",
    "name": "Q00913",
    "lat": 44.0981446,
    "lng": -123.1266834,
    "retailer": "Fred Meyer",
    "street": "60 Division Ave",
    "city": "Eugene",
    "zipPostalCode": "97404",
    "stateProvince": "OR",
    "country": "US",
    "distance": 1601.5805197645748
  },
  {
    "id": "recxeKEROwTqFDzvi",
    "name": "Q00736",
    "lat": 44.5907327,
    "lng": -123.2743198,
    "retailer": "WinCo Foods",
    "street": "2335 NW Kings Blvd",
    "city": "Corvallis",
    "zipPostalCode": "97330",
    "stateProvince": "OR",
    "country": "US",
    "distance": 1602.3696611787161
  },
  {
    "id": "rec4FGSFaOAJUWjU4",
    "name": "Q00952",
    "lat": 44.5869087,
    "lng": -123.2511176,
    "retailer": "Safeway",
    "street": "590 Ne Circle Blvd",
    "city": "Corvallis",
    "zipPostalCode": "97330",
    "stateProvince": "OR",
    "country": "US",
    "distance": 1603.4148075240594
  },
  {
    "id": "recE1gfRzpsKYNvsl",
    "name": "Q01813",
    "lat": 44.0645956,
    "lng": -123.0738439,
    "retailer": "Albertsons",
    "street": "311 Coburg Rd",
    "city": "Eugene",
    "zipPostalCode": "97401",
    "stateProvince": "OR",
    "country": "US",
    "distance": 1603.6322874413424
  },
  {
    "id": "rec9zKoFEfVf6Vi95",
    "name": "Q01307",
    "lat": 44.0782122,
    "lng": -123.0703195,
    "retailer": "Safeway",
    "street": "1500 Coburg Rd",
    "city": "Eugene",
    "zipPostalCode": "97401",
    "stateProvince": "OR",
    "country": "US",
    "distance": 1604.0094597550305
  },
  {
    "id": "recaPtazlhGlM2eXG",
    "name": "Q01798",
    "lat": 44.0923012,
    "lng": -123.066993,
    "retailer": "WinCo Foods",
    "street": "2815 Chad Dr",
    "city": "Eugene",
    "zipPostalCode": "97408",
    "stateProvince": "OR",
    "country": "US",
    "distance": 1604.3841465839496
  },
  {
    "id": "recCXcfBjUlDiLFax",
    "name": "Q00883",
    "lat": 44.9303486,
    "lng": -123.3135117,
    "retailer": "Safeway",
    "street": "138 W Ellendale Ave",
    "city": "Dallas",
    "zipPostalCode": "97338",
    "stateProvince": "OR",
    "country": "US",
    "distance": 1606.36445657361
  },
  {
    "id": "recsBL7WnRQpxLzcn",
    "name": "Q01871",
    "lat": 44.6272294,
    "lng": -123.0795844,
    "retailer": "Safeway",
    "street": "1990 14th Ave SE",
    "city": "Albany",
    "zipPostalCode": "97322",
    "stateProvince": "OR",
    "country": "US",
    "distance": 1612.2848812932473
  },
  {
    "id": "recqsSwXNt5WRkFsX",
    "name": "Q00832",
    "lat": 44.6320862,
    "lng": -123.0748201,
    "retailer": "Fred Meyer",
    "street": "2500 Santiam Hwy SE",
    "city": "Albany",
    "zipPostalCode": "97322",
    "stateProvince": "OR",
    "country": "US",
    "distance": 1612.5937027757893
  },
  {
    "id": "recJKCveJ0ymSuDn4",
    "name": "Q00848",
    "lat": 44.9393571,
    "lng": -123.0633507,
    "retailer": "Safeway",
    "street": "1455 Edgewater St NW",
    "city": "Salem",
    "zipPostalCode": "97304",
    "stateProvince": "OR",
    "country": "US",
    "distance": 1618.3699693788276
  },
  {
    "id": "recL3wfYb0gw0rrAW",
    "name": "Q00779",
    "lat": 45.5194115,
    "lng": -123.0953533,
    "retailer": "Safeway",
    "street": "2836 Pacific Ave",
    "city": "Forest Grove",
    "zipPostalCode": "97116",
    "stateProvince": "OR",
    "country": "US",
    "distance": 1573.3690248946152
  },
  {
    "id": "recePJSwdYMTNVy4g",
    "name": "Q00716",
    "lat": 45.230878,
    "lng": -123.1721662,
    "retailer": "WinCo Foods",
    "street": "2585 NE OR-99W",
    "city": "McMinnville",
    "zipPostalCode": "97128",
    "stateProvince": "OR",
    "country": "US",
    "distance": 1587.500869919669
  },
  {
    "id": "rec05rfKw8YSwtcCo",
    "name": "Q00837",
    "lat": 45.2274759,
    "lng": -123.1727909,
    "retailer": "Safeway",
    "street": "2490 N OR-99W",
    "city": "Mcminnville",
    "zipPostalCode": "97128",
    "stateProvince": "OR",
    "country": "US",
    "distance": 1587.67609659588
  },
  {
    "id": "rec77WrrQ2cNOtUAh",
    "name": "Q01008",
    "lat": 45.1964171,
    "lng": -123.205106,
    "retailer": "Albertsons",
    "street": "615 SW Keck Cir",
    "city": "McMinnville",
    "zipPostalCode": "97128",
    "stateProvince": "OR",
    "country": "US",
    "distance": 1588.5304819852063
  },
  {
    "id": "recuCmPGkc370j6rD",
    "name": "Q02105",
    "lat": 31.8527914,
    "lng": -110.9965818,
    "retailer": "Safeway",
    "street": "260 W Continental Rd",
    "city": "Green Valley",
    "zipPostalCode": "85622",
    "stateProvince": "AZ",
    "country": "US",
    "distance": 365.4538743736578
  },
  {
    "id": "recN54LtVHk71OtbJ",
    "name": "Q01508",
    "lat": 31.9008585,
    "lng": -110.9926897,
    "retailer": "Safeway",
    "street": "1305 W Duval Mine Rd",
    "city": "Green Valley",
    "zipPostalCode": "85614",
    "stateProvince": "AZ",
    "country": "US",
    "distance": 367.480787202736
  },
  {
    "id": "recIduxE2hEzw9vrp",
    "name": "Q01734",
    "lat": 29.5245758,
    "lng": -98.802725,
    "retailer": "H-E-B",
    "street": "15489 Culebra Rd",
    "city": "San Antonio",
    "zipPostalCode": "78253",
    "stateProvince": "TX",
    "country": "US",
    "distance": 86.40849936371589
  },
  {
    "id": "recsiYpFXiSXhofCh",
    "name": "Q01784",
    "lat": 29.2311726,
    "lng": -98.7904617,
    "retailer": "H-E-B",
    "street": "19337 McDonald St",
    "city": "Lytle",
    "zipPostalCode": "78052",
    "stateProvince": "TX",
    "country": "US",
    "distance": 89.29725403642726
  },
  {
    "id": "recdc0zHU7KlUAhwV",
    "name": "Q01780",
    "lat": 29.4340287,
    "lng": -98.7038112,
    "retailer": "H-E-B",
    "street": "10718 Potranco Rd",
    "city": "San Antonio",
    "zipPostalCode": "78251",
    "stateProvince": "TX",
    "country": "US",
    "distance": 92.52465600890797
  },
  {
    "id": "recRoD1e6HNFaTsXD",
    "name": "Q01822",
    "lat": 29.5470211,
    "lng": -98.5108629,
    "retailer": "H-E-B",
    "street": "11551 West Ave",
    "city": "San Antonio",
    "zipPostalCode": "78213",
    "stateProvince": "TX",
    "country": "US",
    "distance": 103.99516821760915
  },
  {
    "id": "rec7RXMAnjzrdKOEa",
    "name": "Q01837",
    "lat": 29.5036053,
    "lng": -98.500293,
    "retailer": "H-E-B",
    "street": "6839 San Pedro Ave",
    "city": "San Antonio",
    "zipPostalCode": "78216",
    "stateProvince": "TX",
    "country": "US",
    "distance": 104.6134325538853
  },
  {
    "id": "recboizHtURQlg7Nt",
    "name": "Q01855",
    "lat": 29.3577962,
    "lng": -98.5029047,
    "retailer": "H-E-B",
    "street": "735 SW Military Dr",
    "city": "San Antonio",
    "zipPostalCode": "78221",
    "stateProvince": "TX",
    "country": "US",
    "distance": 105.02726576791537
  },
  {
    "id": "recrvNJLozJIl41s8",
    "name": "Q01804",
    "lat": 29.3581654,
    "lng": -98.1369872,
    "retailer": "H-E-B",
    "street": "14414 U.S. Hwy 87 W",
    "city": "La Vernia",
    "zipPostalCode": "78121",
    "stateProvince": "TX",
    "country": "US",
    "distance": 37.28724250377793
  },
  {
    "id": "recXpWVWZo9FE9MK8",
    "name": "Q01793",
    "lat": 29.3791917,
    "lng": -98.4607998,
    "retailer": "H-E-B",
    "street": "4100 S New Braunfels Ave",
    "city": "San Antonio",
    "zipPostalCode": "78223",
    "stateProvince": "TX",
    "country": "US",
    "distance": 55.540642646941855
  },
  {
    "id": "recWA6QooB804jCLe",
    "name": "Q01891",
    "lat": 29.4933386,
    "lng": -98.4312741,
    "retailer": "H-E-B",
    "street": "1520 Austin Hwy",
    "city": "San Antonio",
    "zipPostalCode": "78218",
    "stateProvince": "TX",
    "country": "US",
    "distance": 57.31900699912511
  },
  {
    "id": "recpEDxVJKfkz2nVF",
    "name": "Q01747",
    "lat": 30.1101711,
    "lng": -97.3345216,
    "retailer": "H-E-B",
    "street": "104 Hasler Blvd",
    "city": "Bastrop",
    "zipPostalCode": "78602",
    "stateProvince": "TX",
    "country": "US",
    "distance": 21.364605702696252
  },
  {
    "id": "reciSKeYfXmnGYQi9",
    "name": "Q01634",
    "lat": 30.236434,
    "lng": -97.722164,
    "retailer": "H-E-B",
    "street": "2508 E Riverside Dr",
    "city": "Austin",
    "zipPostalCode": "78741",
    "stateProvince": "TX",
    "country": "US",
    "distance": 23.725194862005882
  },
  {
    "id": "recF6OiOE77kFzGMV",
    "name": "Q02005",
    "lat": 30.1841194,
    "lng": -97.8479107,
    "retailer": "Randalls",
    "street": "9911 Brodie Ln",
    "city": "Austin",
    "zipPostalCode": "78748",
    "stateProvince": "TX",
    "country": "US",
    "distance": 23.965044142209493
  },
  {
    "id": "recx7KvezqmTm7qBC",
    "name": "Q00778",
    "lat": 30.2277386,
    "lng": -97.8876823,
    "retailer": "H-E-B",
    "street": "7901 US-290",
    "city": "Austin",
    "zipPostalCode": "78736",
    "stateProvince": "TX",
    "country": "US",
    "distance": 27.806360852620692
  },
  {
    "id": "recacNwR9SgFaMjT7",
    "name": "Q02093",
    "lat": 30.2918802,
    "lng": -97.8274161,
    "retailer": "H-E-B",
    "street": "701 S Capital of Texas Hwy",
    "city": "West Lake Hills",
    "zipPostalCode": "78746",
    "stateProvince": "TX",
    "country": "US",
    "distance": 29.654940149526762
  },
  {
    "id": "recunLYJuRbjtrxt9",
    "name": "Q02000",
    "lat": 30.3048771,
    "lng": -97.9347857,
    "retailer": "H-E-B",
    "street": "12400 State Hwy 71 W",
    "city": "Bee Cave",
    "zipPostalCode": "78738",
    "stateProvince": "TX",
    "country": "US",
    "distance": 33.7665533285612
  },
  {
    "id": "recWpDozjt0lmOeKZ",
    "name": "Q01849",
    "lat": 29.6888647,
    "lng": -98.1260048,
    "retailer": "H-E-B",
    "street": "651 S Walnut Ave",
    "city": "New Braunfels",
    "zipPostalCode": "78130",
    "stateProvince": "TX",
    "country": "US",
    "distance": 34.77876700071582
  },
  {
    "id": "recCiNM9PeKTItP8j",
    "name": "Q01833",
    "lat": 29.5690349,
    "lng": -98.3865596,
    "retailer": "H-E-B",
    "street": "14087 O'Connor Rd",
    "city": "San Antonio",
    "zipPostalCode": "78247",
    "stateProvince": "TX",
    "country": "US",
    "distance": 52.49716654736339
  },
  {
    "id": "recp3hAOgBKEy5w1q",
    "name": "Q01875",
    "lat": 29.639901,
    "lng": -98.4549892,
    "retailer": "H-E-B",
    "street": "20935 N US-281",
    "city": "San Antonio",
    "zipPostalCode": "78258",
    "stateProvince": "TX",
    "country": "US",
    "distance": 54.31840551181102
  },
  {
    "id": "recTTJ3mejluSJAkC",
    "name": "Q01845",
    "lat": 29.4861455,
    "lng": -95.4059672,
    "retailer": "H-E-B",
    "street": "17119 Hwy 6",
    "city": "Manvel",
    "zipPostalCode": "77578",
    "stateProvince": "TX",
    "country": "US",
    "distance": 38.58404418197725
  },
  {
    "id": "rec9724NoTZ0FtAbb",
    "name": "Q00297",
    "lat": 29.3986165,
    "lng": -95.2491837,
    "retailer": "Kroger",
    "street": "3100 S Gordon St",
    "city": "Alvin",
    "zipPostalCode": "77511",
    "stateProvince": "TX",
    "country": "US",
    "distance": 42.25759067048437
  },
  {
    "id": "rec2wRYZzdePtAOgs",
    "name": "Q00400",
    "lat": 29.4886024,
    "lng": -95.1136501,
    "retailer": "Kroger",
    "street": "1920 W League City Pkwy",
    "city": "League City",
    "zipPostalCode": "77573",
    "stateProvince": "TX",
    "country": "US",
    "distance": 52.46982621490495
  },
  {
    "id": "reccehR3vUr9YSFYS",
    "name": "Q00556",
    "lat": 29.5853678,
    "lng": -95.6331636,
    "retailer": "Kroger",
    "street": "4825 Sweetwater Blvd",
    "city": "Sugar Land",
    "zipPostalCode": "77479",
    "stateProvince": "TX",
    "country": "US",
    "distance": 0.8183458601765687
  },
  {
    "id": "recmsPPUO6yNOQN9B",
    "name": "Q00470",
    "lat": 29.6085045,
    "lng": -95.644365,
    "retailer": "H-E-B",
    "street": "530 Hwy 6",
    "city": "Sugar Land",
    "zipPostalCode": "77478",
    "stateProvince": "TX",
    "country": "US",
    "distance": 1.1731488109440864
  },
  {
    "id": "rec1xgiKEwSu0N02j",
    "name": "Q00305",
    "lat": 29.6480006,
    "lng": -95.6494288,
    "retailer": "Kroger",
    "street": "11565 S Texas 6",
    "city": "Sugar Land",
    "zipPostalCode": "77498",
    "stateProvince": "TX",
    "country": "US",
    "distance": 3.720149327924918
  },
  {
    "id": "recNpKPlUcd1H1tFF",
    "name": "Q01636",
    "lat": 29.5648997,
    "lng": -95.6854073,
    "retailer": "H-E-B",
    "street": "19900 Southwest Fwy",
    "city": "Sugar Land",
    "zipPostalCode": "77479",
    "stateProvince": "TX",
    "country": "US",
    "distance": 3.9947953948938197
  },
  {
    "id": "recCq3V139FKqMqkh",
    "name": "Q00292",
    "lat": 29.5513824,
    "lng": -95.5842565,
    "retailer": "Kroger",
    "street": "18861 University Blvd",
    "city": "Sugar Land",
    "zipPostalCode": "77479",
    "stateProvince": "TX",
    "country": "US",
    "distance": 4.186799093295156
  },
  {
    "id": "rec1YMU1VHQjTqKmr",
    "name": "Q00403",
    "lat": 29.5640038,
    "lng": -95.5648761,
    "retailer": "Kroger",
    "street": "6200 Hwy 6",
    "city": "Missouri City",
    "zipPostalCode": "77459",
    "stateProvince": "TX",
    "country": "US",
    "distance": 4.537252445717012
  },
  {
    "id": "recVVFVrnEqnwessy",
    "name": "Q00456",
    "lat": 29.6782369,
    "lng": -95.6429505,
    "retailer": "Kroger",
    "street": "9303 S Texas 6",
    "city": "Houston",
    "zipPostalCode": "77083",
    "stateProvince": "TX",
    "country": "US",
    "distance": 5.678711325856995
  },
  {
    "id": "recpbb2kHsbKLR9Lo",
    "name": "Q00441",
    "lat": 29.659407,
    "lng": -95.7134212,
    "retailer": "H-E-B",
    "street": "10161 W Grand Pkwy S",
    "city": "Richmond",
    "zipPostalCode": "77407",
    "stateProvince": "TX",
    "country": "US",
    "distance": 6.616360454943131
  },
  {
    "id": "rec2ssoS26MIT8Va9",
    "name": "Q01878",
    "lat": 29.551683,
    "lng": -95.7477431,
    "retailer": "H-E-B",
    "street": "23500 Circle Oak Pkwy",
    "city": "Richmond",
    "zipPostalCode": "77469",
    "stateProvince": "TX",
    "country": "US",
    "distance": 7.736071343354808
  },
  {
    "id": "recQgp6s2WCoDJWPh",
    "name": "Q01870",
    "lat": 29.6628052,
    "lng": -95.738539,
    "retailer": "Kroger",
    "street": "8011 W Grand Pkwy S",
    "city": "Richmond",
    "zipPostalCode": "77407",
    "stateProvince": "TX",
    "country": "US",
    "distance": 7.954172631830112
  },
  {
    "id": "recWn8GOmAfqhyvpH",
    "name": "Q00567",
    "lat": 29.5425358,
    "lng": -95.7515926,
    "retailer": "Kroger",
    "street": "24401 Brazos Town Crossing",
    "city": "Rosenberg",
    "zipPostalCode": "77471",
    "stateProvince": "TX",
    "country": "US",
    "distance": 8.218255388530979
  },
  {
    "id": "rec3cLCIekAVK1Mfl",
    "name": "Q00407",
    "lat": 29.5296033,
    "lng": -95.5110503,
    "retailer": "Kroger",
    "street": "10250 Hwy 6",
    "city": "Missouri City",
    "zipPostalCode": "77459",
    "stateProvince": "TX",
    "country": "US",
    "distance": 8.543853893263341
  },
  {
    "id": "recKXZ0iaZvA42aCN",
    "name": "Q00294",
    "lat": 29.6692956,
    "lng": -95.4639481,
    "retailer": "Kroger",
    "street": "10306 S Post Oak Rd",
    "city": "Houston",
    "zipPostalCode": "77035",
    "stateProvince": "TX",
    "country": "US",
    "distance": 11.175982263580687
  },
  {
    "id": "recCz5pRaY8GMAe9I",
    "name": "Q00451",
    "lat": 29.688939,
    "lng": -95.464334,
    "retailer": "H-E-B",
    "street": "4955 Beechnut St",
    "city": "Houston",
    "zipPostalCode": "77096",
    "stateProvince": "TX",
    "country": "US",
    "distance": 11.826557901853176
  },
  {
    "id": "recmOz84IADiDptRX",
    "name": "Q01593",
    "lat": 29.6957811,
    "lng": -95.8159522,
    "retailer": "H-E-B",
    "street": "9211 Farm to Market Rd 723",
    "city": "Richmond",
    "zipPostalCode": "77406",
    "stateProvince": "TX",
    "country": "US",
    "distance": 13.098504732362999
  },
  {
    "id": "reccZfHI5dcbrZZIH",
    "name": "Q01808",
    "lat": 29.7578514,
    "lng": -95.7514354,
    "retailer": "H-E-B",
    "street": "1621 Mason Rd",
    "city": "Katy",
    "zipPostalCode": "77450",
    "stateProvince": "TX",
    "country": "US",
    "distance": 0.8289091704446034
  },
  {
    "id": "reckd4weNNTk1meiU",
    "name": "Q00296",
    "lat": 29.7345519,
    "lng": -95.7548953,
    "retailer": "Kroger",
    "street": "22150 Westheimer Pkwy",
    "city": "Katy",
    "zipPostalCode": "77450",
    "stateProvince": "TX",
    "country": "US",
    "distance": 1.4720283544102442
  },
  {
    "id": "recosLfGblXt3Mj19",
    "name": "Q00543",
    "lat": 29.7896411,
    "lng": -95.7181191,
    "retailer": "H-E-B",
    "street": "1550 Fry Rd",
    "city": "Houston",
    "zipPostalCode": "77084",
    "stateProvince": "TX",
    "country": "US",
    "distance": 2.9527559055118107
  },
  {
    "id": "recrYUHY4JNccfZGc",
    "name": "Q01861",
    "lat": 29.7129493,
    "lng": -95.7762371,
    "retailer": "H-E-B",
    "street": "6711 S Fry Rd",
    "city": "Katy",
    "zipPostalCode": "77494",
    "stateProvince": "TX",
    "country": "US",
    "distance": 3.4399109202258806
  },
  {
    "id": "recKWM7TjxcE2XAER",
    "name": "Q00378",
    "lat": 29.7366719,
    "lng": -95.8100123,
    "retailer": "Kroger",
    "street": "9806 Gaston Rd",
    "city": "Katy",
    "zipPostalCode": "77494",
    "stateProvince": "TX",
    "country": "US",
    "distance": 4.334685437047641
  },
  {
    "id": "rec7Wt0I39GXioGR4",
    "name": "Q00304",
    "lat": 29.708561,
    "lng": -95.6857361,
    "retailer": "Kroger",
    "street": "6425 Fm 1464",
    "city": "Richmond",
    "zipPostalCode": "77407",
    "stateProvince": "TX",
    "country": "US",
    "distance": 4.3955798138869
  },
  {
    "id": "recWwnXlC5dzXJtS3",
    "name": "Q00532",
    "lat": 29.773716,
    "lng": -95.8223824,
    "retailer": "H-E-B",
    "street": "25675 Nelson Way",
    "city": "Katy",
    "zipPostalCode": "77494",
    "stateProvince": "TX",
    "country": "US",
    "distance": 5.192177682335163
  },
  {
    "id": "rec6QJ5cyuSvrVmqe",
    "name": "Q01835",
    "lat": 29.7005873,
    "lng": -95.8115319,
    "retailer": "Kroger",
    "street": "25050 FM 1093",
    "city": "Richmond",
    "zipPostalCode": "77406",
    "stateProvince": "TX",
    "country": "US",
    "distance": 5.55630120098624
  },
  {
    "id": "rec92SQBRZtMs8jug",
    "name": "Q00313",
    "lat": 29.7632255,
    "lng": -95.8429666,
    "retailer": "Kroger",
    "street": "1712 Spring Green Blvd",
    "city": "Katy",
    "zipPostalCode": "77494",
    "stateProvince": "TX",
    "country": "US",
    "distance": 6.246644595561918
  },
  {
    "id": "rec1vJAtXF5WAsgkq",
    "name": "Q00757",
    "lat": 29.8599149,
    "lng": -95.7215909,
    "retailer": "Kroger",
    "street": "6055 N Fry Rd",
    "city": "Katy",
    "zipPostalCode": "77449",
    "stateProvince": "TX",
    "country": "US",
    "distance": 1.159478644714865
  },
  {
    "id": "rec3z5FsOTHPkoHrx",
    "name": "Q00397",
    "lat": 29.8126778,
    "lng": -95.7723057,
    "retailer": "Kroger",
    "street": "2700 W Grand Pkwy N",
    "city": "Katy",
    "zipPostalCode": "77449",
    "stateProvince": "TX",
    "country": "US",
    "distance": 3.481542790105782
  },
  {
    "id": "rec7PAplYC5lECWnX",
    "name": "Q00405",
    "lat": 29.8189063,
    "lng": -95.8055703,
    "retailer": "H-E-B",
    "street": "24924 Morton Ranch Rd",
    "city": "Katy",
    "zipPostalCode": "77493",
    "stateProvince": "TX",
    "country": "US",
    "distance": 4.645371033166309
  },
  {
    "id": "recp3oDQ5fKiUPGHY",
    "name": "Q00309",
    "lat": 29.7482589,
    "lng": -95.5000897,
    "retailer": "Kroger",
    "street": "1801 S Voss Rd",
    "city": "Houston",
    "zipPostalCode": "77057",
    "stateProvince": "TX",
    "country": "US",
    "distance": 1.2390141573212439
  },
  {
    "id": "recdOr5WLJmuUGgiN",
    "name": "Q00299",
    "lat": 29.7366028,
    "lng": -95.5440242,
    "retailer": "Kroger",
    "street": "9919 Westheimer Rd",
    "city": "Houston",
    "zipPostalCode": "77042",
    "stateProvince": "TX",
    "country": "US",
    "distance": 1.7466744213791456
  },
  {
    "id": "recL5qjLVtBiYd13y",
    "name": "Q00538",
    "lat": 29.748037,
    "lng": -95.4851544,
    "retailer": "H-E-B",
    "street": "5895 San Felipe St",
    "city": "Houston",
    "zipPostalCode": "77057",
    "stateProvince": "TX",
    "country": "US",
    "distance": 2.1300604469895807
  },
  {
    "id": "recBHUtFcV2U3ynfq",
    "name": "Q00773",
    "lat": 29.7741532,
    "lng": -95.56181,
    "retailer": "Randalls",
    "street": "12850 Memorial Dr",
    "city": "Houston",
    "zipPostalCode": "77024",
    "stateProvince": "TX",
    "country": "US",
    "distance": 2.9440567088204883
  },
  {
    "id": "rechrEIaqwKbtDUTQ",
    "name": "Q00390",
    "lat": 29.796956,
    "lng": -95.4852773,
    "retailer": "Kroger",
    "street": "1505 Wirt Rd",
    "city": "Houston",
    "zipPostalCode": "77055",
    "stateProvince": "TX",
    "country": "US",
    "distance": 3.7953352421856357
  },
  {
    "id": "recBgG1WCDoQKS4zR",
    "name": "Q00541",
    "lat": 29.7076365,
    "lng": -95.4695077,
    "retailer": "H-E-B",
    "street": "5106 Bissonnet St",
    "city": "Bellaire",
    "zipPostalCode": "77401",
    "stateProvince": "TX",
    "country": "US",
    "distance": 4.300510021474588
  },
  {
    "id": "recYLNYWNCLMlYEHF",
    "name": "Q00395",
    "lat": 29.756662,
    "lng": -95.6258347,
    "retailer": "Kroger",
    "street": "1520 Eldridge Pkwy",
    "city": "Houston",
    "zipPostalCode": "77077",
    "stateProvince": "TX",
    "country": "US",
    "distance": 6.3410930167819926
  },
  {
    "id": "recTIUXdzB77uSZ4L",
    "name": "Q00553",
    "lat": 29.7047527,
    "lng": -95.4254575,
    "retailer": "Randalls",
    "street": "3131 W Holcombe Blvd",
    "city": "Houston",
    "zipPostalCode": "77025",
    "stateProvince": "TX",
    "country": "US",
    "distance": 6.551737850950449
  },
  {
    "id": "recl79sly71QSm5Bl",
    "name": "Q00396",
    "lat": 29.7890691,
    "lng": -95.4111975,
    "retailer": "Kroger",
    "street": "1035 N Shepherd Dr",
    "city": "Houston",
    "zipPostalCode": "77008",
    "stateProvince": "TX",
    "country": "US",
    "distance": 7.057534001431638
  },
  {
    "id": "recgVv43uXF3BNJNt",
    "name": "Q00302",
    "lat": 29.6267425,
    "lng": -95.1739315,
    "retailer": "Kroger",
    "street": "11701 East Sam Houston Pkwy S",
    "city": "Houston",
    "zipPostalCode": "77089",
    "stateProvince": "TX",
    "country": "US",
    "distance": 2.312743577507357
  },
  {
    "id": "recAQRCMBsN9FdJXt",
    "name": "Q01864",
    "lat": 29.5350451,
    "lng": -95.2067897,
    "retailer": "Kroger",
    "street": "151 N Friendswood Dr",
    "city": "Friendswood",
    "zipPostalCode": "77546",
    "stateProvince": "TX",
    "country": "US",
    "distance": 4.379424162888729
  },
  {
    "id": "recu7B2v8xku5DqnX",
    "name": "Q00291",
    "lat": 29.6646841,
    "lng": -95.1894311,
    "retailer": "Kroger",
    "street": "3550 Spencer Hwy",
    "city": "Pasadena",
    "zipPostalCode": "77504",
    "stateProvince": "TX",
    "country": "US",
    "distance": 4.689488387815159
  },
  {
    "id": "recR0FtUno5KypCNU",
    "name": "Q00300",
    "lat": 29.5587589,
    "lng": -95.1248033,
    "retailer": "Kroger",
    "street": "16400 El Camino Real",
    "city": "Houston",
    "zipPostalCode": "77062",
    "stateProvince": "TX",
    "country": "US",
    "distance": 4.790771892149844
  },
  {
    "id": "recKZMokUfvGHBfTP",
    "name": "Q01889",
    "lat": 29.5581925,
    "lng": -95.2649888,
    "retailer": "H-E-B",
    "street": "2710 Pearland Pkwy",
    "city": "Pearland",
    "zipPostalCode": "77581",
    "stateProvince": "TX",
    "country": "US",
    "distance": 5.179750258490415
  },
  {
    "id": "recTUYtQueZw8fogQ",
    "name": "Q00295",
    "lat": 29.5603795,
    "lng": -95.2711707,
    "retailer": "Kroger",
    "street": "3245 Broadway St",
    "city": "Pearland",
    "zipPostalCode": "77581",
    "stateProvince": "TX",
    "country": "US",
    "distance": 5.429541477769824
  },
  {
    "id": "recybKmNzTELsd4gA",
    "name": "Q00550",
    "lat": 29.5215336,
    "lng": -95.1606772,
    "retailer": "Kroger",
    "street": "3135 FM 528 Rd",
    "city": "Webster",
    "zipPostalCode": "77546",
    "stateProvince": "TX",
    "country": "US",
    "distance": 5.528960868527797
  },
  {
    "id": "recdz3ZqGDzQiXayf",
    "name": "Q00552",
    "lat": 29.6643597,
    "lng": -95.1358244,
    "retailer": "Kroger",
    "street": "6767 Spencer Hwy",
    "city": "Pasadena",
    "zipPostalCode": "77505",
    "stateProvince": "TX",
    "country": "US",
    "distance": 5.734634733158355
  },
  {
    "id": "recO6fZoMY7a9eVyQ",
    "name": "Q00290",
    "lat": 29.6965277,
    "lng": -95.1740464,
    "retailer": "Kroger",
    "street": "2619 Red Bluff Rd",
    "city": "Pasadena",
    "zipPostalCode": "77506",
    "stateProvince": "TX",
    "country": "US",
    "distance": 6.9686779209417
  },
  {
    "id": "recQSbqwM5YnFLbj3",
    "name": "Q00406",
    "lat": 29.6747992,
    "lng": -95.291058,
    "retailer": "Kroger",
    "street": "6322 Telephone Rd",
    "city": "Houston",
    "zipPostalCode": "77087",
    "stateProvince": "TX",
    "country": "US",
    "distance": 8.063533961663882
  },
  {
    "id": "recJykUNux9a9jKaM",
    "name": "Q00763",
    "lat": 29.5387211,
    "lng": -95.0629729,
    "retailer": "Randalls",
    "street": "2951 Marina Bay Dr Suite B",
    "city": "League City",
    "zipPostalCode": "77573",
    "stateProvince": "TX",
    "country": "US",
    "distance": 8.705410403245049
  },
  {
    "id": "recsFIQSfMkXDg87I",
    "name": "Q00301",
    "lat": 29.5604214,
    "lng": -95.3489815,
    "retailer": "Kroger",
    "street": "8323 Broadway St",
    "city": "Pearland",
    "zipPostalCode": "77581",
    "stateProvince": "TX",
    "country": "US",
    "distance": 9.816422094965402
  },
  {
    "id": "recaUhK4gdQF7cPgA",
    "name": "Q00393",
    "lat": 29.5689598,
    "lng": -95.025479,
    "retailer": "Kroger",
    "street": "1905 El Mar Ln",
    "city": "Seabrook",
    "zipPostalCode": "77586",
    "stateProvince": "TX",
    "country": "US",
    "distance": 10.158797621888173
  },
  {
    "id": "recSmWljAyuQ23U43",
    "name": "Q00381",
    "lat": 29.6527065,
    "lng": -95.0319438,
    "retailer": "Kroger",
    "street": "1300 W Fairmont Pkwy",
    "city": "La Porte",
    "zipPostalCode": "77571",
    "stateProvince": "TX",
    "country": "US",
    "distance": 10.329053328561201
  },
  {
    "id": "recEK5ksxpiYaKRXQ",
    "name": "Q00551",
    "lat": 29.5077121,
    "lng": -95.0414925,
    "retailer": "Kroger",
    "street": "2750 E League City Pkwy",
    "city": "League City",
    "zipPostalCode": "77573",
    "stateProvince": "TX",
    "country": "US",
    "distance": 10.922462817147856
  },
  {
    "id": "recSq2ObRDqooyjzU",
    "name": "Q00307",
    "lat": 29.5830621,
    "lng": -95.3898979,
    "retailer": "Kroger",
    "street": "11003 Shadow Creek Pkwy",
    "city": "Pearland",
    "zipPostalCode": "77584",
    "stateProvince": "TX",
    "country": "US",
    "distance": 11.985007555873697
  },
  {
    "id": "recerKEeqzvTWMnvH",
    "name": "Q00466",
    "lat": 29.5571834,
    "lng": -95.3900697,
    "retailer": "H-E-B",
    "street": "2805 Business Center Dr",
    "city": "Pearland",
    "zipPostalCode": "77584",
    "stateProvince": "TX",
    "country": "US",
    "distance": 12.270216933110634
  },
  {
    "id": "recJsmOkExRFM02Yr",
    "name": "Q01881",
    "lat": 29.79099,
    "lng": -95.2009339,
    "retailer": "Kroger",
    "street": "12620 Woodforest Blvd",
    "city": "Houston",
    "zipPostalCode": "77015",
    "stateProvince": "TX",
    "country": "US",
    "distance": 1.0134564145390916
  },
  {
    "id": "recxjGlZEZ2DArT6q",
    "name": "Q00562",
    "lat": 29.7490072,
    "lng": -95.3746713,
    "retailer": "Randalls",
    "street": "2225 Louisiana St",
    "city": "Houston",
    "zipPostalCode": "77002",
    "stateProvince": "TX",
    "country": "US",
    "distance": 11.627097749144992
  },
  {
    "id": "recu6HB8oLwOU3qhH",
    "name": "Q01858",
    "lat": 29.7737794,
    "lng": -95.3897016,
    "retailer": "Kroger",
    "street": "1440 Studemont St",
    "city": "Houston",
    "zipPostalCode": "77007",
    "stateProvince": "TX",
    "country": "US",
    "distance": 12.081941461862721
  },
  {
    "id": "recVpAUwEuO6afgmh",
    "name": "Q01888",
    "lat": 29.7925163,
    "lng": -94.9808418,
    "retailer": "Kroger",
    "street": "6315 Garth Rd",
    "city": "Baytown",
    "zipPostalCode": "77521",
    "stateProvince": "TX",
    "country": "US",
    "distance": 12.652360216336593
  },
  {
    "id": "recngJzWuJlrUKrSe",
    "name": "Q01863",
    "lat": 29.7956677,
    "lng": -94.9797083,
    "retailer": "H-E-B",
    "street": "6430 Garth Rd",
    "city": "Baytown",
    "zipPostalCode": "77521",
    "stateProvince": "TX",
    "country": "US",
    "distance": 12.709526366022429
  },
  {
    "id": "recS2UmakszTHhszK",
    "name": "Q00542",
    "lat": 29.8077194,
    "lng": -95.4084616,
    "retailer": "H-E-B",
    "street": "2300 N Shepherd Dr",
    "city": "Houston",
    "zipPostalCode": "77008",
    "stateProvince": "TX",
    "country": "US",
    "distance": 13.039474469100453
  },
  {
    "id": "recC05OpEGT9uyUhB",
    "name": "Q00777",
    "lat": 29.9900718,
    "lng": -95.7365086,
    "retailer": "Kroger",
    "street": "20355 Cypresswood Dr",
    "city": "Cypress",
    "zipPostalCode": "77433",
    "stateProvince": "TX",
    "country": "US",
    "distance": 2.2655193668973195
  },
  {
    "id": "recs3CLD8BdiPkgDJ",
    "name": "Q00524",
    "lat": 29.9270923,
    "lng": -95.7252432,
    "retailer": "H-E-B",
    "street": "9722 Fry Rd",
    "city": "Cypress",
    "zipPostalCode": "77433",
    "stateProvince": "TX",
    "country": "US",
    "distance": 2.2748399347808794
  },
  {
    "id": "recBax6yEIukxhSFv",
    "name": "Q00558",
    "lat": 29.9720665,
    "lng": -95.6914295,
    "retailer": "Kroger",
    "street": "17455 Spring Cypress Rd",
    "city": "Cypress",
    "zipPostalCode": "77429",
    "stateProvince": "TX",
    "country": "US",
    "distance": 3.072059174421379
  },
  {
    "id": "rec2ias0Wa0cUADId",
    "name": "Q00530",
    "lat": 29.9574758,
    "lng": -95.6732414,
    "retailer": "H-E-B",
    "street": "24224 Northwest Fwy",
    "city": "Cypress",
    "zipPostalCode": "77429",
    "stateProvince": "TX",
    "country": "US",
    "distance": 3.991067167740396
  },
  {
    "id": "reckoGy8W6qngtvPT",
    "name": "Q00557",
    "lat": 29.9191279,
    "lng": -95.6895196,
    "retailer": "Kroger",
    "street": "9703 Barker Cypress Rd",
    "city": "Cypress",
    "zipPostalCode": "77433",
    "stateProvince": "TX",
    "country": "US",
    "distance": 4.015922015429889
  },
  {
    "id": "recOZvdKwNQLMK1nl",
    "name": "Q00522",
    "lat": 30.0028691,
    "lng": -95.6389541,
    "retailer": "H-E-B",
    "street": "14100 Spring Cypress Rd",
    "city": "Cypress",
    "zipPostalCode": "77429",
    "stateProvince": "TX",
    "country": "US",
    "distance": 6.812713751690129
  },
  {
    "id": "receOW3tM13z1SFJL",
    "name": "Q00399",
    "lat": 30.0914661,
    "lng": -95.6335394,
    "retailer": "Kroger",
    "street": "14060 Farm to Market 2920",
    "city": "Tomball",
    "zipPostalCode": "77377",
    "stateProvince": "TX",
    "country": "US",
    "distance": 6.713915732124393
  },
  {
    "id": "reckdHPfMsCpez0lE",
    "name": "Q01899",
    "lat": 30.0887362,
    "lng": -95.6303519,
    "retailer": "H-E-B",
    "street": "28520 Tomball Pkwy",
    "city": "Tomball",
    "zipPostalCode": "77375",
    "stateProvince": "TX",
    "country": "US",
    "distance": 6.838811341764097
  },
  {
    "id": "recCqPzHEGb7H4Ddr",
    "name": "Q00394",
    "lat": 29.9819699,
    "lng": -95.5658505,
    "retailer": "Kroger",
    "street": "10010 Cypresswood Dr",
    "city": "Houston",
    "zipPostalCode": "77070",
    "stateProvince": "TX",
    "country": "US",
    "distance": 3.2075180943291177
  },
  {
    "id": "reccjKtyqUuFZM9Q9",
    "name": "Q00545",
    "lat": 30.0031004,
    "lng": -95.5317096,
    "retailer": "Kroger",
    "street": "15802 Champion Forest Dr",
    "city": "Spring",
    "zipPostalCode": "77379",
    "stateProvince": "TX",
    "country": "US",
    "distance": 3.2292660860574243
  },
  {
    "id": "recKatbQPJsl8SqZz",
    "name": "Q00288",
    "lat": 29.9517844,
    "lng": -95.5824732,
    "retailer": "Kroger",
    "street": "12222 Jones Rd",
    "city": "Houston",
    "zipPostalCode": "77070",
    "stateProvince": "TX",
    "country": "US",
    "distance": 3.7394118348842755
  },
  {
    "id": "recg2aFjkTuDXXgxT",
    "name": "Q00298",
    "lat": 29.9124005,
    "lng": -95.477945,
    "retailer": "Kroger",
    "street": "12434 TX-249",
    "city": "Houston",
    "zipPostalCode": "77086",
    "stateProvince": "TX",
    "country": "US",
    "distance": 4.023999840928974
  },
  {
    "id": "rec1E8khSJcRfdxht",
    "name": "Q00520",
    "lat": 29.9954598,
    "lng": -95.5763325,
    "retailer": "H-E-B",
    "street": "10919 Louetta Rd",
    "city": "Houston",
    "zipPostalCode": "77070",
    "stateProvince": "TX",
    "country": "US",
    "distance": 4.258878151594686
  },
  {
    "id": "recVWqTBF6AliLlIS",
    "name": "Q00565",
    "lat": 29.9097279,
    "lng": -95.5835809,
    "retailer": "Kroger",
    "street": "9330 Jones Rd",
    "city": "Houston",
    "zipPostalCode": "77065",
    "stateProvince": "TX",
    "country": "US",
    "distance": 5.0231647180466075
  },
  {
    "id": "recQ2mPVx2f2Eoj59",
    "name": "Q00526",
    "lat": 29.9110223,
    "lng": -95.5861338,
    "retailer": "H-E-B",
    "street": "9503 Jones Rd",
    "city": "Houston",
    "zipPostalCode": "77065",
    "stateProvince": "TX",
    "country": "US",
    "distance": 5.082194981309154
  },
  {
    "id": "recdIxUXI8W2fnnBi",
    "name": "Q00402",
    "lat": 29.9224638,
    "lng": -95.6047522,
    "retailer": "Kroger",
    "street": "12400 Farm to Market 1960 Rd W",
    "city": "Houston",
    "zipPostalCode": "77065",
    "stateProvince": "TX",
    "country": "US",
    "distance": 5.604146782788515
  },
  {
    "id": "recdgkUnmf5nYlwKw",
    "name": "Q00306",
    "lat": 30.0744341,
    "lng": -95.5172797,
    "retailer": "Kroger",
    "street": "6060 Farm to Market 2920",
    "city": "Spring",
    "zipPostalCode": "77379",
    "stateProvince": "TX",
    "country": "US",
    "distance": 0.9817664837349875
  },
  {
    "id": "recS6YbNHzBUEmrW1",
    "name": "Q00564",
    "lat": 30.0400907,
    "lng": -95.4866292,
    "retailer": "Kroger",
    "street": "18518 Kuykendahl Rd",
    "city": "Spring",
    "zipPostalCode": "77379",
    "stateProvince": "TX",
    "country": "US",
    "distance": 2.4668436331822154
  },
  {
    "id": "rec4KdegyLgYtMoLG",
    "name": "Q00768",
    "lat": 30.0222042,
    "lng": -95.5269541,
    "retailer": "H-E-B",
    "street": "7310 Louetta Rd",
    "city": "Spring",
    "zipPostalCode": "77379",
    "stateProvince": "TX",
    "country": "US",
    "distance": 2.6781098385429094
  },
  {
    "id": "recutzjjD9YEPEslv",
    "name": "Q00549",
    "lat": 30.0333032,
    "lng": -95.5527329,
    "retailer": "Kroger",
    "street": "8745 Spring Cypress Rd",
    "city": "Spring",
    "zipPostalCode": "77379",
    "stateProvince": "TX",
    "country": "US",
    "distance": 2.698615087886741
  },
  {
    "id": "recTK3hQLXq9jZGNW",
    "name": "Q00533",
    "lat": 30.0552388,
    "lng": -95.5760043,
    "retailer": "H-E-B",
    "street": "20311 Champion Forest Dr",
    "city": "Spring",
    "zipPostalCode": "77379",
    "stateProvince": "TX",
    "country": "US",
    "distance": 3.347947983774755
  },
  {
    "id": "recSQ2MOk7X1zqREe",
    "name": "Q00561",
    "lat": 30.085252,
    "lng": -95.448501,
    "retailer": "Kroger",
    "street": "2150 Spring Stuebner Rd",
    "city": "Spring",
    "zipPostalCode": "77389",
    "stateProvince": "TX",
    "country": "US",
    "distance": 4.632943609321562
  },
  {
    "id": "rec7sBWAyD28wApjC",
    "name": "Q00389",
    "lat": 30.0215106,
    "lng": -95.4353618,
    "retailer": "Kroger",
    "street": "360 Cypress Creek Pkwy",
    "city": "Houston",
    "zipPostalCode": "77090",
    "stateProvince": "TX",
    "country": "US",
    "distance": 5.763217808001272
  },
  {
    "id": "recXZMyv1Q2c7BQIE",
    "name": "Q01662",
    "lat": 30.2215455,
    "lng": -95.5842765,
    "retailer": "H-E-B",
    "street": "7988 FM 1488",
    "city": "Magnolia",
    "zipPostalCode": "77354",
    "stateProvince": "TX",
    "country": "US",
    "distance": 2.7756651157241707
  },
  {
    "id": "rec0ariQBUz282Opw",
    "name": "Q00536",
    "lat": 30.1802461,
    "lng": -95.5392128,
    "retailer": "H-E-B",
    "street": "10777 Kuykendahl Rd",
    "city": "The Woodlands",
    "zipPostalCode": "77382",
    "stateProvince": "TX",
    "country": "US",
    "distance": 5.949629165672472
  },
  {
    "id": "recby6TTEC5frGKN3",
    "name": "Q00559",
    "lat": 30.209898,
    "lng": -95.5267491,
    "retailer": "Kroger",
    "street": "8000 Research Forest Dr",
    "city": "The Woodlands",
    "zipPostalCode": "77382",
    "stateProvince": "TX",
    "country": "US",
    "distance": 6.190721188260558
  },
  {
    "id": "recMSJkji87ivkwcb",
    "name": "Q01638",
    "lat": 30.2271282,
    "lng": -95.5203712,
    "retailer": "H-E-B",
    "street": "3601 FM 1488",
    "city": "Conroe",
    "zipPostalCode": "77384",
    "stateProvince": "TX",
    "country": "US",
    "distance": 6.61201085659747
  },
  {
    "id": "recx44gfLQn2ApbBe",
    "name": "Q01873",
    "lat": 30.1439757,
    "lng": -95.5495875,
    "retailer": "H-E-B",
    "street": "26500 Kuykendahl Rd",
    "city": "Tomball",
    "zipPostalCode": "77375",
    "stateProvince": "TX",
    "country": "US",
    "distance": 6.890385150719796
  },
  {
    "id": "recLSc06ZRhFZJjMG",
    "name": "Q00392",
    "lat": 30.1145442,
    "lng": -95.5527397,
    "retailer": "Kroger",
    "street": "24350 Kuykendahl Rd",
    "city": "Tomball",
    "zipPostalCode": "77375",
    "stateProvince": "TX",
    "country": "US",
    "distance": 8.361170762745566
  },
  {
    "id": "recwjPB5otPsAym33",
    "name": "Q00434",
    "lat": 30.1632726,
    "lng": -95.4645934,
    "retailer": "H-E-B",
    "street": "9595 Six Pines Dr",
    "city": "The Woodlands",
    "zipPostalCode": "77380",
    "stateProvince": "TX",
    "country": "US",
    "distance": 10.529134852461624
  },
  {
    "id": "recRFaAPVDXqDVTnL",
    "name": "Q00408",
    "lat": 30.2763194,
    "lng": -95.4649423,
    "retailer": "Kroger",
    "street": "341 S Loop 336 W",
    "city": "Conroe",
    "zipPostalCode": "77304",
    "stateProvince": "TX",
    "country": "US",
    "distance": 10.73729420186113
  },
  {
    "id": "recFFO1UsN9fMKeUt",
    "name": "Q01590",
    "lat": 30.206532,
    "lng": -95.4253633,
    "retailer": "H-E-B",
    "street": "10200 TX-242",
    "city": "Conroe",
    "zipPostalCode": "77385",
    "stateProvince": "TX",
    "country": "US",
    "distance": 12.2546826533047
  },
  {
    "id": "recToBPKNpwPGW2h0",
    "name": "Q00387",
    "lat": 30.001196,
    "lng": -95.1609646,
    "retailer": "Kroger",
    "street": "19300 W Lake Houston Pkwy",
    "city": "Humble",
    "zipPostalCode": "77346",
    "stateProvince": "TX",
    "country": "US",
    "distance": 1.896424878708343
  },
  {
    "id": "recBDCUuhtyozndE6",
    "name": "Q01865",
    "lat": 30.0526386,
    "lng": -95.1838003,
    "retailer": "H-E-B",
    "street": "4517 Kingwood Dr",
    "city": "Kingwood",
    "zipPostalCode": "77345",
    "stateProvince": "TX",
    "country": "US",
    "distance": 3.0440974707706987
  },
  {
    "id": "rec8dyq2x8KtREMBW",
    "name": "Q00560",
    "lat": 30.0667111,
    "lng": -95.1871226,
    "retailer": "Kroger",
    "street": "3410 Northpark Dr",
    "city": "Kingwood",
    "zipPostalCode": "77345",
    "stateProvince": "TX",
    "country": "US",
    "distance": 3.991688538932633
  },
  {
    "id": "recbhJpLBPzm2rA1b",
    "name": "Q01879",
    "lat": 30.072145,
    "lng": -95.2431459,
    "retailer": "Kroger",
    "street": "25651 US-59 N",
    "city": "Kingwood",
    "zipPostalCode": "77339",
    "stateProvince": "TX",
    "country": "US",
    "distance": 5.353112821124632
  },
  {
    "id": "reczDjM3njv33dUeK",
    "name": "Q00566",
    "lat": 30.0071835,
    "lng": -95.2812871,
    "retailer": "Kroger",
    "street": "9475 Farm to Market 1960 Bypass Rd W",
    "city": "Humble",
    "zipPostalCode": "77338",
    "stateProvince": "TX",
    "country": "US",
    "distance": 5.392880577427821
  },
  {
    "id": "reccgEmzKjlnJS5gJ",
    "name": "Q00462",
    "lat": 30.0686242,
    "lng": -95.2517348,
    "retailer": "H-E-B",
    "street": "19529 Northpark Dr",
    "city": "Kingwood",
    "zipPostalCode": "77339",
    "stateProvince": "TX",
    "country": "US",
    "distance": 5.48173665791776
  },
  {
    "id": "recmEiQOWMAiORLtc",
    "name": "Q00555",
    "lat": 29.9245734,
    "lng": -95.2037069,
    "retailer": "Kroger",
    "street": "14221 East Sam Houston Pkwy N",
    "city": "Houston",
    "zipPostalCode": "77044",
    "stateProvince": "TX",
    "country": "US",
    "distance": 5.894948500755587
  },
  {
    "id": "recVI9WXE3rEsJMQd",
    "name": "Q00457",
    "lat": 29.9235757,
    "lng": -95.1969934,
    "retailer": "H-E-B",
    "street": "12680 W Lake Houston Pkwy",
    "city": "Houston",
    "zipPostalCode": "77044",
    "stateProvince": "TX",
    "country": "US",
    "distance": 5.926638431559691
  },
  {
    "id": "rechkyWukGeyGMVgT",
    "name": "Q00404",
    "lat": 30.0456949,
    "lng": -95.3480823,
    "retailer": "Kroger",
    "street": "5671 Treaschwig Rd",
    "city": "Spring",
    "zipPostalCode": "77373",
    "stateProvince": "TX",
    "country": "US",
    "distance": 9.72570190089875
  },
  {
    "id": "recORVA3UdWA47rCP",
    "name": "Q00544",
    "lat": 30.1094203,
    "lng": -95.3873814,
    "retailer": "H-E-B",
    "street": "3540 Rayford Rd",
    "city": "Spring",
    "zipPostalCode": "77386",
    "stateProvince": "TX",
    "country": "US",
    "distance": 13.637233556032767
  },
  {
    "id": "rec1vCW1VUoRhlvug",
    "name": "Q00303",
    "lat": 30.13311,
    "lng": -95.2366264,
    "retailer": "Kroger",
    "street": "22030 Market Pl Dr",
    "city": "New Caney",
    "zipPostalCode": "77357",
    "stateProvince": "TX",
    "country": "US",
    "distance": 6.293247434979718
  },
  {
    "id": "recHKREqJTsfEn8SG",
    "name": "Q00383",
    "lat": 30.1183759,
    "lng": -95.3820133,
    "retailer": "Kroger",
    "street": "3731 Riley Fuzzel Rd",
    "city": "Spring",
    "zipPostalCode": "77386",
    "stateProvince": "TX",
    "country": "US",
    "distance": 13.227749940348364
  },
  {
    "id": "recZO41BzDfjH6QEA",
    "name": "Q00568",
    "lat": 30.1233709,
    "lng": -95.4067491,
    "retailer": "Kroger",
    "street": "2301 Rayford Rd",
    "city": "Spring",
    "zipPostalCode": "77386",
    "stateProvince": "TX",
    "country": "US",
    "distance": 14.36610196452716
  },
  {
    "id": "recThTwOXZEM6CXpj",
    "name": "Q01718",
    "lat": 30.4989322,
    "lng": -97.6148105,
    "retailer": "H-E-B",
    "street": "3750 Gattis School Rd",
    "city": "Round Rock",
    "zipPostalCode": "78664",
    "stateProvince": "TX",
    "country": "US",
    "distance": 69.53392189612661
  },
  {
    "id": "rec1n4Lim1FGaeFZk",
    "name": "Q00464",
    "lat": 30.7220926,
    "lng": -95.5607435,
    "retailer": "H-E-B",
    "street": "1702 11th St",
    "city": "Huntsville",
    "zipPostalCode": "77340",
    "stateProvince": "TX",
    "country": "US",
    "distance": 75.39158812534797
  },
  {
    "id": "recXi1djtCXUZ0Kc1",
    "name": "Q01642",
    "lat": 30.5322175,
    "lng": -97.7851093,
    "retailer": "H-E-B",
    "street": "2800 E Whitestone Blvd",
    "city": "Cedar Park",
    "zipPostalCode": "78613",
    "stateProvince": "TX",
    "country": "US",
    "distance": 76.15090372226199
  },
  {
    "id": "recI4dtrlOSUUCj5m",
    "name": "Q01594",
    "lat": 30.417369,
    "lng": -97.702871,
    "retailer": "H-E-B",
    "street": "12407 MoPac Expy N",
    "city": "Austin",
    "zipPostalCode": "78758",
    "stateProvince": "TX",
    "country": "US",
    "distance": 77.20102103714308
  },
  {
    "id": "rec2oEHTptnljg9eD",
    "name": "Q01851",
    "lat": 30.4760825,
    "lng": -97.8036994,
    "retailer": "H-E-B",
    "street": "14028 N US-183",
    "city": "Austin",
    "zipPostalCode": "78717",
    "stateProvince": "TX",
    "country": "US",
    "distance": 79.31306171955778
  },
  {
    "id": "recJepRGF0Lm5MOXm",
    "name": "Q01867",
    "lat": 30.4538886,
    "lng": -97.8255775,
    "retailer": "H-E-B",
    "street": "11521 N FM 620",
    "city": "Austin",
    "zipPostalCode": "78726",
    "stateProvince": "TX",
    "country": "US",
    "distance": 81.27659468702775
  },
  {
    "id": "recIC8PpYLhNBQP5l",
    "name": "Q00547",
    "lat": 30.3898848,
    "lng": -95.6778541,
    "retailer": "Kroger",
    "street": "20168 Eva St",
    "city": "Montgomery",
    "zipPostalCode": "77356",
    "stateProvince": "TX",
    "country": "US",
    "distance": 81.76934204247196
  },
  {
    "id": "recrTZqdJBEmKsUaF",
    "name": "Q01635",
    "lat": 30.4047315,
    "lng": -97.8517213,
    "retailer": "H-E-B",
    "street": "7301 N FM 620",
    "city": "Austin",
    "zipPostalCode": "78726",
    "stateProvince": "TX",
    "country": "US",
    "distance": 84.5829108009226
  },
  {
    "id": "recn8Tgyq1d1xu2K2",
    "name": "Q00548",
    "lat": 30.4219364,
    "lng": -95.4941675,
    "retailer": "Kroger",
    "street": "12605 Interstate 45 N",
    "city": "Willis",
    "zipPostalCode": "77318",
    "stateProvince": "TX",
    "country": "US",
    "distance": 89.08225960391314
  },
  {
    "id": "recpFlWkMJ8V0xcVe",
    "name": "Q01803",
    "lat": 30.3256173,
    "lng": -95.5002316,
    "retailer": "H-E-B",
    "street": "3875 W Davis St",
    "city": "Conroe",
    "zipPostalCode": "77304",
    "stateProvince": "TX",
    "country": "US",
    "distance": 92.7781754553408
  },
  {
    "id": "recSfUR2fXFwbejXq",
    "name": "Q00376",
    "lat": 30.3359787,
    "lng": -95.476921,
    "retailer": "Kroger",
    "street": "2222 Interstate 45 N",
    "city": "Conroe",
    "zipPostalCode": "77301",
    "stateProvince": "TX",
    "country": "US",
    "distance": 93.43247932076672
  },
  {
    "id": "recGE5in9J4ltFQD2",
    "name": "Q01245",
    "lat": 34.437709,
    "lng": -119.7904626,
    "retailer": "Vons",
    "street": "163 S Turnpike Rd",
    "city": "Goleta",
    "zipPostalCode": "93111",
    "stateProvince": "CA",
    "country": "US",
    "distance": 86.27739004215381
  },
  {
    "id": "rect78UJt2a2dvKIE",
    "name": "Q00995",
    "lat": 33.6067784,
    "lng": -117.8278394,
    "retailer": "Pavilions",
    "street": "21181 Newport Coast Dr",
    "city": "Newport Beach",
    "zipPostalCode": "92657",
    "stateProvince": "CA",
    "country": "US",
    "distance": 55.94204843712717
  },
  {
    "id": "recZFjfOGkuZHuaK8",
    "name": "Q00489",
    "lat": 32.5831174,
    "lng": -117.0347214,
    "retailer": "Vons",
    "street": "620 Dennery Rd",
    "city": "San Diego",
    "zipPostalCode": "92154",
    "stateProvince": "CA",
    "country": "US",
    "distance": 15.5734261910443
  },
  {
    "id": "recZLXU27HtTBhc9j",
    "name": "Q00331",
    "lat": 32.61984,
    "lng": -116.961152,
    "retailer": "Vons",
    "street": "1745 Eastlake Pkwy",
    "city": "Chula Vista",
    "zipPostalCode": "91915",
    "stateProvince": "CA",
    "country": "US",
    "distance": 16.665175375805294
  },
  {
    "id": "recbbHLAxlieDxpQ0",
    "name": "Q01791",
    "lat": 32.6159413,
    "lng": -117.0251274,
    "retailer": "Ralphs",
    "street": "659 E Palomar St",
    "city": "Chula Vista",
    "zipPostalCode": "91911",
    "stateProvince": "CA",
    "country": "US",
    "distance": 17.413927662451282
  },
  {
    "id": "recfrAvTheFwOoD4A",
    "name": "Q01032",
    "lat": 32.6457363,
    "lng": -116.9662935,
    "retailer": "Vons",
    "street": "2250 Otay Lakes Rd",
    "city": "Chula Vista",
    "zipPostalCode": "91915",
    "stateProvince": "CA",
    "country": "US",
    "distance": 18.481443370715024
  },
  {
    "id": "recUHwX28PVuVwJuA",
    "name": "Q01670",
    "lat": 32.6271077,
    "lng": -117.0744388,
    "retailer": "Albertsons",
    "street": "720 3rd Ave",
    "city": "Chula Vista",
    "zipPostalCode": "91910",
    "stateProvince": "CA",
    "country": "US",
    "distance": 19.345770699117153
  },
  {
    "id": "receI5YRJLQmHh0WE",
    "name": "Q01951",
    "lat": 32.7082197,
    "lng": -117.0086037,
    "retailer": "Albertsons",
    "street": "543 Sweetwater Rd",
    "city": "Spring Valley",
    "zipPostalCode": "91977",
    "stateProvince": "CA",
    "country": "US",
    "distance": 23.21318499960232
  },
  {
    "id": "recovijBHrgmWbltM",
    "name": "Q01832",
    "lat": 32.7393019,
    "lng": -116.9375562,
    "retailer": "Albertsons",
    "street": "2899 Jamacha Rd",
    "city": "El Cajon",
    "zipPostalCode": "92019",
    "stateProvince": "CA",
    "country": "US",
    "distance": 24.740515390121686
  },
  {
    "id": "rec1GqpVMJp9hor2F",
    "name": "Q01934",
    "lat": 32.7440219,
    "lng": -117.0375763,
    "retailer": "Food 4 Less",
    "street": "7420 Broadway",
    "city": "Lemon Grove",
    "zipPostalCode": "91945",
    "stateProvince": "CA",
    "country": "US",
    "distance": 26.04042392428219
  },
  {
    "id": "recTypw4J7grDYVWf",
    "name": "Q01687",
    "lat": 32.7610937,
    "lng": -117.0650207,
    "retailer": "Vons",
    "street": "6155 El Cajon Blvd",
    "city": "San Diego",
    "zipPostalCode": "92115",
    "stateProvince": "CA",
    "country": "US",
    "distance": 27.642940229062273
  },
  {
    "id": "recaI3qZQaR8skEpo",
    "name": "Q00878",
    "lat": 32.7862652,
    "lng": -117.005438,
    "retailer": "Albertsons",
    "street": "8920 Fletcher Pkwy",
    "city": "La Mesa",
    "zipPostalCode": "91942",
    "stateProvince": "CA",
    "country": "US",
    "distance": 28.451344150163045
  },
  {
    "id": "rec1CZ6Boydgl1kbd",
    "name": "Q00592",
    "lat": 32.7531326,
    "lng": -117.1300036,
    "retailer": "Vons",
    "street": "4145 30th St",
    "city": "San Diego",
    "zipPostalCode": "92104",
    "stateProvince": "CA",
    "country": "US",
    "distance": 28.5737542750338
  },
  {
    "id": "rec9K6p9iEakGksUh",
    "name": "Q00506",
    "lat": 32.749735,
    "lng": -117.1600231,
    "retailer": "Vons",
    "street": "515 Washington St",
    "city": "San Diego",
    "zipPostalCode": "92103",
    "stateProvince": "CA",
    "country": "US",
    "distance": 29.180833929849676
  },
  {
    "id": "recAlyO2ekTNtZ7bU",
    "name": "Q01738",
    "lat": 32.7372237,
    "lng": -117.2157268,
    "retailer": "Vons",
    "street": "2495 Truxtun Rd Ste 28",
    "city": "San Diego",
    "zipPostalCode": "92106",
    "stateProvince": "CA",
    "country": "US",
    "distance": 30.197397200349954
  },
  {
    "id": "recVEzOGxwZCbixLf",
    "name": "Q00505",
    "lat": 32.9152387,
    "lng": -117.144766,
    "retailer": "Vons",
    "street": "8310 Mira Mesa Blvd",
    "city": "San Diego",
    "zipPostalCode": "92126",
    "stateProvince": "CA",
    "country": "US",
    "distance": 1.565234033245844
  },
  {
    "id": "rechIPweeS10akZUn",
    "name": "Q01703",
    "lat": 32.9030914,
    "lng": -117.100461,
    "retailer": "Vons",
    "street": "10016 Scripps Ranch Blvd",
    "city": "San Diego",
    "zipPostalCode": "92131",
    "stateProvince": "CA",
    "country": "US",
    "distance": 2.023184601924759
  },
  {
    "id": "rec6bKe4cL0GPACFZ",
    "name": "Q00889",
    "lat": 32.9355075,
    "lng": -117.0985163,
    "retailer": "Vons",
    "street": "10675 Scripps Poway Pkwy",
    "city": "San Diego",
    "zipPostalCode": "92131",
    "stateProvince": "CA",
    "country": "US",
    "distance": 3.494591585142766
  },
  {
    "id": "rec7uFigiHu1g2T6z",
    "name": "Q01831",
    "lat": 32.9609224,
    "lng": -117.1535891,
    "retailer": "Vons",
    "street": "7895 Highlands Village Pl",
    "city": "San Diego",
    "zipPostalCode": "92129",
    "stateProvince": "CA",
    "country": "US",
    "distance": 4.731120257695061
  },
  {
    "id": "recakwtw2c4d29F6K",
    "name": "Q01842",
    "lat": 32.8672167,
    "lng": -117.2330107,
    "retailer": "Ralphs",
    "street": "8657 Villa La Jolla Dr",
    "city": "La Jolla",
    "zipPostalCode": "92037",
    "stateProvince": "CA",
    "country": "US",
    "distance": 6.066446949813091
  },
  {
    "id": "recrj9lFvx46zAwcp",
    "name": "Q00615",
    "lat": 32.8301997,
    "lng": -117.2049118,
    "retailer": "Vons",
    "street": "4725 Clairemont Dr",
    "city": "San Diego",
    "zipPostalCode": "92117",
    "stateProvince": "CA",
    "country": "US",
    "distance": 6.0745247753121765
  },
  {
    "id": "recuVSCix5fAYIy6l",
    "name": "Q00888",
    "lat": 32.8073112,
    "lng": -117.1166399,
    "retailer": "Vons",
    "street": "3550 Murphy Canyon Rd",
    "city": "San Diego",
    "zipPostalCode": "92123",
    "stateProvince": "CA",
    "country": "US",
    "distance": 6.117399387576552
  },
  {
    "id": "recZZwsUySXUB5mWA",
    "name": "Q00576",
    "lat": 32.8416872,
    "lng": -117.273582,
    "retailer": "Pavilions",
    "street": "7544 Girard Ave",
    "city": "La Jolla",
    "zipPostalCode": "92037",
    "stateProvince": "CA",
    "country": "US",
    "distance": 8.907356040722181
  },
  {
    "id": "rec65r6ZH2VOvckmO",
    "name": "Q01906",
    "lat": 32.8481993,
    "lng": -116.9854262,
    "retailer": "Food 4 Less",
    "street": "9430 Cuyamaca St",
    "city": "Santee",
    "zipPostalCode": "92071",
    "stateProvince": "CA",
    "country": "US",
    "distance": 9.196915016304779
  },
  {
    "id": "rec5xGiyf3xigeQ1G",
    "name": "Q01655",
    "lat": 32.8373352,
    "lng": -116.9871021,
    "retailer": "Vons",
    "street": "9643 Mission Gorge Rd",
    "city": "Santee",
    "zipPostalCode": "92071",
    "stateProvince": "CA",
    "country": "US",
    "distance": 9.396996540205201
  },
  {
    "id": "recjvByVglxB9oj2s",
    "name": "Q00581",
    "lat": 32.8018341,
    "lng": -117.0128343,
    "retailer": "Albertsons",
    "street": "8650 Lake Murray Blvd",
    "city": "San Diego",
    "zipPostalCode": "92119",
    "stateProvince": "CA",
    "country": "US",
    "distance": 9.515678437922531
  },
  {
    "id": "recAS875B0FkVm52n",
    "name": "Q00474",
    "lat": 32.8086789,
    "lng": -116.9201467,
    "retailer": "Albertsons",
    "street": "1608 Broadway",
    "city": "El Cajon",
    "zipPostalCode": "92021",
    "stateProvince": "CA",
    "country": "US",
    "distance": 13.76275053686471
  },
  {
    "id": "recz9xsYqRyjGlI6k",
    "name": "Q00890",
    "lat": 33.1087309,
    "lng": -117.1057928,
    "retailer": "Albertsons",
    "street": "1570 W Valley Pkwy",
    "city": "Escondido",
    "zipPostalCode": "92029",
    "stateProvince": "CA",
    "country": "US",
    "distance": 1.7149844905750415
  },
  {
    "id": "rec7jiKLJQhd5wb0I",
    "name": "Q00502",
    "lat": 33.140048,
    "lng": -117.1384242,
    "retailer": "Albertsons",
    "street": "151 Woodland Pkwy",
    "city": "San Marcos",
    "zipPostalCode": "92069",
    "stateProvince": "CA",
    "country": "US",
    "distance": 2.7365187306132186
  },
  {
    "id": "recAJLtzeu6ZC4YEu",
    "name": "Q01717",
    "lat": 33.1306541,
    "lng": -117.1670069,
    "retailer": "Ralphs",
    "street": "306 S Twin Oaks Valley Rd",
    "city": "San Marcos",
    "zipPostalCode": "92078",
    "stateProvince": "CA",
    "country": "US",
    "distance": 2.8291030382565814
  },
  {
    "id": "rec7f3z8xXvgBhwyF",
    "name": "Q00479",
    "lat": 33.1350603,
    "lng": -117.1762885,
    "retailer": "WinCo Foods",
    "street": "555 Grand Ave",
    "city": "San Marcos",
    "zipPostalCode": "92078",
    "stateProvince": "CA",
    "country": "US",
    "distance": 3.4231338980354726
  },
  {
    "id": "rec8F6IjhHaYPcxZy",
    "name": "Q01900",
    "lat": 33.128628,
    "lng": -117.0833577,
    "retailer": "Food 4 Less",
    "street": "644 N Broadway",
    "city": "Escondido",
    "zipPostalCode": "92025",
    "stateProvince": "CA",
    "country": "US",
    "distance": 3.503290781834089
  },
  {
    "id": "rec0isoFauBaBOWnC",
    "name": "Q01030",
    "lat": 33.1031634,
    "lng": -117.0732483,
    "retailer": "Vons",
    "street": "351 W Felicita Ave",
    "city": "Escondido",
    "zipPostalCode": "92025",
    "stateProvince": "CA",
    "country": "US",
    "distance": 3.511989978525411
  },
  {
    "id": "rechFbSvLK83eH41s",
    "name": "Q00892",
    "lat": 33.1485783,
    "lng": -117.1067548,
    "retailer": "Vons",
    "street": "1000 W El Norte Pkwy",
    "city": "Escondido",
    "zipPostalCode": "92026",
    "stateProvince": "CA",
    "country": "US",
    "distance": 3.6648472918157955
  },
  {
    "id": "recblnArd6TTtb4DH",
    "name": "Q01022",
    "lat": 33.0970081,
    "lng": -117.2002937,
    "retailer": "Albertsons",
    "street": "1571 San Elijo Rd",
    "city": "San Marcos",
    "zipPostalCode": "92078",
    "stateProvince": "CA",
    "country": "US",
    "distance": 3.8618219597550305
  },
  {
    "id": "recyxaPvlbJBdTbwF",
    "name": "Q00877",
    "lat": 33.1319149,
    "lng": -117.2109589,
    "retailer": "Albertsons",
    "street": "1929 W San Marcos Blvd",
    "city": "San Marcos",
    "zipPostalCode": "92078",
    "stateProvince": "CA",
    "country": "US",
    "distance": 4.965377197168535
  },
  {
    "id": "recrDOVnBioKVCdri",
    "name": "Q00492",
    "lat": 33.0210886,
    "lng": -117.0722025,
    "retailer": "Vons",
    "street": "11986 Bernardo Plaza Dr",
    "city": "San Diego",
    "zipPostalCode": "92128",
    "stateProvince": "CA",
    "country": "US",
    "distance": 6.561679790026246
  },
  {
    "id": "reclzSlclZiF9Zk58",
    "name": "Q00572",
    "lat": 33.0176045,
    "lng": -117.0616634,
    "retailer": "Albertsons",
    "street": "12475 Rancho Bernardo Rd",
    "city": "San Diego",
    "zipPostalCode": "92128",
    "stateProvince": "CA",
    "country": "US",
    "distance": 7.106622325618388
  },
  {
    "id": "rec08o4h6q9DLkoQC",
    "name": "Q01024",
    "lat": 33.1034861,
    "lng": -117.268622,
    "retailer": "Vons",
    "street": "6951 El Camino Real",
    "city": "Carlsbad",
    "zipPostalCode": "92009",
    "stateProvince": "CA",
    "country": "US",
    "distance": 7.814985484768949
  },
  {
    "id": "rec9ktEeSZ4dzFV3C",
    "name": "Q00516",
    "lat": 33.1659525,
    "lng": -117.2474028,
    "retailer": "Albertsons",
    "street": "1601 S Melrose Dr",
    "city": "Vista",
    "zipPostalCode": "92081",
    "stateProvince": "CA",
    "country": "US",
    "distance": 7.980891593096317
  },
  {
    "id": "recqYBV04rpxF1Bau",
    "name": "Q01693",
    "lat": 33.0347683,
    "lng": -117.2827875,
    "retailer": "Vons",
    "street": "453 Santa Fe Dr",
    "city": "Encinitas",
    "zipPostalCode": "92024",
    "stateProvince": "CA",
    "country": "US",
    "distance": 9.766091028394177
  },
  {
    "id": "recR8sDhbArhUSG0A",
    "name": "Q00668",
    "lat": 33.1795563,
    "lng": -117.2964516,
    "retailer": "Albertsons",
    "street": "3450 Marron Rd",
    "city": "Oceanside",
    "zipPostalCode": "92056",
    "stateProvince": "CA",
    "country": "US",
    "distance": 10.887044659190327
  },
  {
    "id": "recMTDusBWnExoDwg",
    "name": "Q00875",
    "lat": 33.1787141,
    "lng": -117.3247364,
    "retailer": "Vons",
    "street": "2560 El Camino Real",
    "city": "Carlsbad",
    "zipPostalCode": "92008",
    "stateProvince": "CA",
    "country": "US",
    "distance": 12.306877833452635
  },
  {
    "id": "recK0APEW4P5prmjD",
    "name": "Q01695",
    "lat": 33.1857067,
    "lng": -117.3300164,
    "retailer": "WinCo Foods",
    "street": "2245 S El Camino Real",
    "city": "Oceanside",
    "zipPostalCode": "92054",
    "stateProvince": "CA",
    "country": "US",
    "distance": 12.796518332935655
  },
  {
    "id": "recBs7F2nEutzS8l7",
    "name": "Q00476",
    "lat": 33.3718783,
    "lng": -117.2560377,
    "retailer": "Albertsons",
    "street": "1133 S Mission Rd",
    "city": "Fallbrook",
    "zipPostalCode": "92028",
    "stateProvince": "CA",
    "country": "US",
    "distance": 6.213090551181102
  },
  {
    "id": "recTS3mBNHY6aC7Wo",
    "name": "Q01005",
    "lat": 33.2411185,
    "lng": -117.2946649,
    "retailer": "Vons",
    "street": "845 College Blvd",
    "city": "Oceanside",
    "zipPostalCode": "92057",
    "stateProvince": "CA",
    "country": "US",
    "distance": 12.18943867811978
  },
  {
    "id": "rec2Xwl8zLrp1yQaX",
    "name": "Q01681",
    "lat": 33.2298664,
    "lng": -117.3074821,
    "retailer": "Ralphs",
    "street": "101 Old Grove Rd",
    "city": "Oceanside",
    "zipPostalCode": "92057",
    "stateProvince": "CA",
    "country": "US",
    "distance": 12.76482840213155
  },
  {
    "id": "reclCQvgTSWPHE0uR",
    "name": "Q02396",
    "lat": 33.522769,
    "lng": -117.1608495,
    "retailer": "Food 4 Less",
    "street": "26419 Ynez Rd",
    "city": "Temecula",
    "zipPostalCode": "92591",
    "stateProvince": "CA",
    "country": "US",
    "distance": 13.55024158911954
  },
  {
    "id": "rectTzme5gVcmFuER",
    "name": "Q00495",
    "lat": 33.5670571,
    "lng": -117.2036471,
    "retailer": "Albertsons",
    "street": "41000 California Oaks Rd",
    "city": "Murrieta",
    "zipPostalCode": "92562",
    "stateProvince": "CA",
    "country": "US",
    "distance": 13.850985246162411
  },
  {
    "id": "recPjtlQAupav22xw",
    "name": "Q01185",
    "lat": 33.5306272,
    "lng": -117.154063,
    "retailer": "WinCo Foods",
    "street": "40435 Winchester Rd",
    "city": "Temecula",
    "zipPostalCode": "92591",
    "stateProvince": "CA",
    "country": "US",
    "distance": 14.18404020520162
  },
  {
    "id": "recwxoofcYVtxXQcD",
    "name": "Q00751",
    "lat": 33.2077157,
    "lng": -117.2872673,
    "retailer": "Albertsons",
    "street": "4150 Oceanside Blvd",
    "city": "Oceanside",
    "zipPostalCode": "92056",
    "stateProvince": "CA",
    "country": "US",
    "distance": 14.529522588085579
  },
  {
    "id": "recP6UVtvtKNsiljP",
    "name": "Q02397",
    "lat": 33.5101876,
    "lng": -117.1273025,
    "retailer": "Albertsons",
    "street": "30530 Rancho California Rd",
    "city": "Temecula",
    "zipPostalCode": "92591",
    "stateProvince": "CA",
    "country": "US",
    "distance": 14.75073073252207
  },
  {
    "id": "recOpGUtiWqGE6T1F",
    "name": "Q01291",
    "lat": 33.456798,
    "lng": -117.6033259,
    "retailer": "Pavilions",
    "street": "989 Avenida Pico",
    "city": "San Clemente",
    "zipPostalCode": "92673",
    "stateProvince": "CA",
    "country": "US",
    "distance": 14.789877117633022
  },
  {
    "id": "recl4oDac9Il8FHea",
    "name": "Q00521",
    "lat": 33.4426992,
    "lng": -117.6138706,
    "retailer": "Albertsons",
    "street": "804 Avenida Pico",
    "city": "San Clemente",
    "zipPostalCode": "92673",
    "stateProvince": "CA",
    "country": "US",
    "distance": 15.212409528354408
  },
  {
    "id": "recz2jypGzmtoOrJT",
    "name": "Q00488",
    "lat": 33.2182665,
    "lng": -117.2243439,
    "retailer": "Albertsons",
    "street": "1301 E Vista Way",
    "city": "Vista",
    "zipPostalCode": "92084",
    "stateProvince": "CA",
    "country": "US",
    "distance": 15.236021633659428
  },
  {
    "id": "rectG5HAYB361VscY",
    "name": "Q00485",
    "lat": 33.5507785,
    "lng": -117.1389757,
    "retailer": "Albertsons",
    "street": "39140 Winchester Rd",
    "city": "Murrieta",
    "zipPostalCode": "92563",
    "stateProvince": "CA",
    "country": "US",
    "distance": 15.717584307643362
  },
  {
    "id": "recsQs1cmbFlbPhRq",
    "name": "Q01925",
    "lat": 33.5537813,
    "lng": -117.138608,
    "retailer": "Vons",
    "street": "38995 Sky Canyon Dr",
    "city": "Murrieta",
    "zipPostalCode": "92563",
    "stateProvince": "CA",
    "country": "US",
    "distance": 15.862985166626897
  },
  {
    "id": "recVAdwhbL73XOm1i",
    "name": "Q01885",
    "lat": 33.4844405,
    "lng": -117.079684,
    "retailer": "Ralphs",
    "street": "33145 Temecula Pkwy",
    "city": "Temecula",
    "zipPostalCode": "92592",
    "stateProvince": "CA",
    "country": "US",
    "distance": 16.59682454465919
  },
  {
    "id": "recKBcvSnqwodL8pY",
    "name": "Q00498",
    "lat": 33.56359,
    "lng": -117.64619,
    "retailer": "Albertsons",
    "street": "27702 Crown Valley Pkwy B",
    "city": "Ladera Ranch",
    "zipPostalCode": "92694",
    "stateProvince": "CA",
    "country": "US",
    "distance": 19.94787938439513
  },
  {
    "id": "recrUcDY61MOb8cB6",
    "name": "Q01007",
    "lat": 33.523915,
    "lng": -117.6879421,
    "retailer": "Albertsons",
    "street": "30241 Golden Lantern",
    "city": "Laguna Niguel",
    "zipPostalCode": "92677",
    "stateProvince": "CA",
    "country": "US",
    "distance": 20.8494889843315
  },
  {
    "id": "reczCHmph3hvSdq2v",
    "name": "Q02399",
    "lat": 33.5860085,
    "lng": -117.6575103,
    "retailer": "Pavilions",
    "street": "26022 Marguerite Pkwy",
    "city": "Mission Viejo",
    "zipPostalCode": "92692",
    "stateProvince": "CA",
    "country": "US",
    "distance": 21.345343195736895
  },
  {
    "id": "recqxSREDvGHIeqEW",
    "name": "Q00494",
    "lat": 34.2218328,
    "lng": -119.1617781,
    "retailer": "Vons",
    "street": "2101 N Rose Ave",
    "city": "Oxnard",
    "zipPostalCode": "93036",
    "stateProvince": "CA",
    "country": "US",
    "distance": 3.170857193987115
  },
  {
    "id": "recSYJ49dPWpLIVPa",
    "name": "Q01930",
    "lat": 34.2322996,
    "lng": -119.1773352,
    "retailer": "Food 4 Less",
    "street": "250 W Esplanade Dr",
    "city": "Oxnard",
    "zipPostalCode": "93036",
    "stateProvince": "CA",
    "country": "US",
    "distance": 3.933901018054561
  },
  {
    "id": "recMmyBfOzKemZQm8",
    "name": "Q01242",
    "lat": 34.2261289,
    "lng": -119.0385325,
    "retailer": "Vons",
    "street": "940 Arneill RD",
    "city": "Camarillo",
    "zipPostalCode": "93010",
    "stateProvince": "CA",
    "country": "US",
    "distance": 4.052582915771892
  },
  {
    "id": "rec2kMqS76sknHQfc",
    "name": "Q01722",
    "lat": 34.263228,
    "lng": -119.2122842,
    "retailer": "Vons",
    "street": "1291 S Victoria Ave",
    "city": "Oxnard",
    "zipPostalCode": "93035",
    "stateProvince": "CA",
    "country": "US",
    "distance": 6.244159110792968
  },
  {
    "id": "recGPY8gbsuJHErcg",
    "name": "Q01806",
    "lat": 34.3444267,
    "lng": -119.0813557,
    "retailer": "Vons",
    "street": "576 W Main St",
    "city": "Santa Paula",
    "zipPostalCode": "93060",
    "stateProvince": "CA",
    "country": "US",
    "distance": 7.739178199315994
  },
  {
    "id": "recU1ofUOQtWStAsw",
    "name": "Q01898",
    "lat": 34.2712244,
    "lng": -119.2592734,
    "retailer": "Vons",
    "street": "2764 E Thompson Blvd",
    "city": "Ventura",
    "zipPostalCode": "93003",
    "stateProvince": "CA",
    "country": "US",
    "distance": 8.973842758291577
  },
  {
    "id": "recmGQbetmcYN0AUr",
    "name": "Q01123",
    "lat": 34.2822708,
    "lng": -119.302335,
    "retailer": "Vons",
    "street": "115 W Main St",
    "city": "Ventura",
    "zipPostalCode": "93001",
    "stateProvince": "CA",
    "country": "US",
    "distance": 11.5506690924998
  },
  {
    "id": "reckfwGI8sGvdD76t",
    "name": "Q01792",
    "lat": 34.2675833,
    "lng": -118.8992722,
    "retailer": "Vons",
    "street": "4241 Tierra Rejada Rd",
    "city": "Moorpark",
    "zipPostalCode": "93021",
    "stateProvince": "CA",
    "country": "US",
    "distance": 12.181360852620694
  },
  {
    "id": "receUldLeRdofBmyu",
    "name": "Q01783",
    "lat": 34.2015085,
    "lng": -118.8667803,
    "retailer": "Vons",
    "street": "1790 N Moorpark Rd",
    "city": "Thousand Oaks",
    "zipPostalCode": "91360",
    "stateProvince": "CA",
    "country": "US",
    "distance": 14.023105066412151
  },
  {
    "id": "reccdyNQ253evZrKo",
    "name": "Q00507",
    "lat": 34.2099857,
    "lng": -118.8408366,
    "retailer": "Vons",
    "street": "2048 E Avenida de Los Arboles",
    "city": "Thousand Oaks",
    "zipPostalCode": "91362",
    "stateProvince": "CA",
    "country": "US",
    "distance": 15.411248309870356
  },
  {
    "id": "recs1Bbr83tKxDOM7",
    "name": "Q00481",
    "lat": 34.3950319,
    "lng": -118.9162363,
    "retailer": "Vons",
    "street": "636 Ventura St",
    "city": "Fillmore",
    "zipPostalCode": "93015",
    "stateProvince": "CA",
    "country": "US",
    "distance": 15.606980235425116
  },
  {
    "id": "recoabayFOWodEN8Y",
    "name": "Q02393",
    "lat": 34.152612,
    "lng": -118.8253593,
    "retailer": "Gelson's Market",
    "street": "2734 Townsgate Rd",
    "city": "Westlake Village",
    "zipPostalCode": "91361",
    "stateProvince": "CA",
    "country": "US",
    "distance": 17.17532112463215
  },
  {
    "id": "rec2mfOnAkXtTPdnB",
    "name": "Q00465",
    "lat": 34.2616858,
    "lng": -118.7946734,
    "retailer": "Albertsons",
    "street": "1268 Madera Rd",
    "city": "Simi Valley",
    "zipPostalCode": "93065",
    "stateProvince": "CA",
    "country": "US",
    "distance": 18.045862164956652
  },
  {
    "id": "recKDmmfMfUv1RrtO",
    "name": "Q00486",
    "lat": 34.2800151,
    "lng": -118.7624605,
    "retailer": "Vons",
    "street": "1855 Cochran St",
    "city": "Simi Valley",
    "zipPostalCode": "93065",
    "stateProvince": "CA",
    "country": "US",
    "distance": 20.034871351308357
  },
  {
    "id": "rec84TdN4QF3rKWaL",
    "name": "Q00504",
    "lat": 34.2885635,
    "lng": -118.7156094,
    "retailer": "Vons",
    "street": "2938 Tapo Canyon Rd",
    "city": "Simi Valley",
    "zipPostalCode": "93063",
    "stateProvince": "CA",
    "country": "US",
    "distance": 22.77263282430605
  },
  {
    "id": "recGeiQ1aNqMNGeDS",
    "name": "Q00523",
    "lat": 34.1448958,
    "lng": -118.6997694,
    "retailer": "Albertsons",
    "street": "26521 Agoura Rd",
    "city": "Calabasas",
    "zipPostalCode": "91302",
    "stateProvince": "CA",
    "country": "US",
    "distance": 24.205514793605342
  },
  {
    "id": "rec9GT2X5Z7xNM8q7",
    "name": "Q00714",
    "lat": 33.7754149,
    "lng": -118.3778782,
    "retailer": "Pavilions",
    "street": "7 Peninsula Center",
    "city": "Rolling Hills Estates",
    "zipPostalCode": "90274",
    "stateProvince": "CA",
    "country": "US",
    "distance": 5.709779885468861
  },
  {
    "id": "recmIH58N8LCuI0KE",
    "name": "Q00177",
    "lat": 33.7648317,
    "lng": -118.3098874,
    "retailer": "Albertsons",
    "street": "28090 S Western Ave",
    "city": "San Pedro",
    "zipPostalCode": "90732",
    "stateProvince": "CA",
    "country": "US",
    "distance": 8.678691441978843
  },
  {
    "id": "recHwLGolEcYs7JI0",
    "name": "Q00706",
    "lat": 33.8049935,
    "lng": -118.3304632,
    "retailer": "Vons",
    "street": "24325 Crenshaw Blvd",
    "city": "Torrance",
    "zipPostalCode": "90505",
    "stateProvince": "CA",
    "country": "US",
    "distance": 9.105573451045892
  },
  {
    "id": "recTwZXyapQPaMZQj",
    "name": "Q00410",
    "lat": 33.778677,
    "lng": -118.2655443,
    "retailer": "Food 4 Less",
    "street": "336 W Anaheim St",
    "city": "Wilmington",
    "zipPostalCode": "90744",
    "stateProvince": "CA",
    "country": "US",
    "distance": 11.402161377555077
  },
  {
    "id": "recyXkO3HmqykUpn7",
    "name": "Q00722",
    "lat": 33.8063827,
    "lng": -118.2725788,
    "retailer": "Albertsons",
    "street": "200 E Sepulveda Blvd",
    "city": "Carson",
    "zipPostalCode": "90745",
    "stateProvince": "CA",
    "country": "US",
    "distance": 11.875646226039926
  },
  {
    "id": "recGNsA7oyeckQaxQ",
    "name": "Q00512",
    "lat": 33.9852041,
    "lng": -118.4397951,
    "retailer": "Pavilions",
    "street": "4365 Glencoe Ave",
    "city": "Marina del Rey",
    "zipPostalCode": "90292",
    "stateProvince": "CA",
    "country": "US",
    "distance": 4.201712001908852
  },
  {
    "id": "recpRkSvGUSnDRLCt",
    "name": "Q00315",
    "lat": 33.8993596,
    "lng": -118.3664971,
    "retailer": "Food 4 Less",
    "street": "14500 Ocean Gate Ave",
    "city": "Hawthorne",
    "zipPostalCode": "90250",
    "stateProvince": "CA",
    "country": "US",
    "distance": 5.131283305495903
  },
  {
    "id": "recTAufKB6NRajHrP",
    "name": "Q00721",
    "lat": 33.8658773,
    "lng": -118.3944151,
    "retailer": "Vons",
    "street": "715 Pier Ave",
    "city": "Hermosa Beach",
    "zipPostalCode": "90254",
    "stateProvince": "CA",
    "country": "US",
    "distance": 5.204605106179909
  },
  {
    "id": "recDT0abE5CHZH4Kk",
    "name": "Q00741",
    "lat": 33.8922077,
    "lng": -118.3621856,
    "retailer": "Vons",
    "street": "4001 Inglewood Ave",
    "city": "Redondo Beach",
    "zipPostalCode": "90278",
    "stateProvince": "CA",
    "country": "US",
    "distance": 5.548223375487154
  },
  {
    "id": "recewicxUPUQbj6af",
    "name": "Q00517",
    "lat": 33.9967446,
    "lng": -118.3937633,
    "retailer": "Pavilions",
    "street": "11030 Jefferson Blvd",
    "city": "Culver City",
    "zipPostalCode": "90230",
    "stateProvince": "CA",
    "country": "US",
    "distance": 5.924152946790741
  },
  {
    "id": "recSBUeIDNEXz0aJW",
    "name": "Q00422",
    "lat": 33.9602624,
    "lng": -118.3491837,
    "retailer": "Vons",
    "street": "500 E Manchester Blvd",
    "city": "Inglewood",
    "zipPostalCode": "90301",
    "stateProvince": "CA",
    "country": "US",
    "distance": 6.293868806171956
  },
  {
    "id": "recScnXbCx4KxzjG7",
    "name": "Q00380",
    "lat": 33.9442333,
    "lng": -118.3281129,
    "retailer": "Food 4 Less",
    "street": "3200 W Century Blvd",
    "city": "Inglewood",
    "zipPostalCode": "90303",
    "stateProvince": "CA",
    "country": "US",
    "distance": 7.138312256422492
  },
  {
    "id": "rec9zRqv44MfnpQuY",
    "name": "Q00423",
    "lat": 33.8377488,
    "lng": -118.3635153,
    "retailer": "Vons",
    "street": "4705 Torrance Blvd",
    "city": "Torrance",
    "zipPostalCode": "90503",
    "stateProvince": "CA",
    "country": "US",
    "distance": 7.833005249343832
  },
  {
    "id": "reca6u4Eg0UtxBxls",
    "name": "Q00386",
    "lat": 33.9293814,
    "lng": -118.3105782,
    "retailer": "Food 4 Less",
    "street": "11507 S Western Ave",
    "city": "Los Angeles",
    "zipPostalCode": "90047",
    "stateProvince": "CA",
    "country": "US",
    "distance": 8.02687306132188
  },
  {
    "id": "recxaXsqyA3LExTmQ",
    "name": "Q01825",
    "lat": 34.0201919,
    "lng": -118.3547782,
    "retailer": "Ralphs",
    "street": "5080 Obama Blvd",
    "city": "Los Angeles",
    "zipPostalCode": "90016",
    "stateProvince": "CA",
    "country": "US",
    "distance": 8.562495029030462
  },
  {
    "id": "recKAEvz5Tl4xULPa",
    "name": "Q00732",
    "lat": 33.8742371,
    "lng": -118.3080208,
    "retailer": "Albertsons",
    "street": "1735 Artesia Blvd",
    "city": "Gardena",
    "zipPostalCode": "90248",
    "stateProvince": "CA",
    "country": "US",
    "distance": 8.89617135926191
  },
  {
    "id": "reco18iFhSu9Hn0Tp",
    "name": "Q00658",
    "lat": 33.8909176,
    "lng": -118.2978182,
    "retailer": "Vons",
    "street": "1260 W Redondo Beach Blvd",
    "city": "Gardena",
    "zipPostalCode": "90247",
    "stateProvince": "CA",
    "country": "US",
    "distance": 9.069533921896126
  },
  {
    "id": "recnL11bR82ehC3Z5",
    "name": "Q00413",
    "lat": 33.9876022,
    "lng": -118.3109435,
    "retailer": "Food 4 Less",
    "street": "1820 W Slauson Ave",
    "city": "Los Angeles",
    "zipPostalCode": "90047",
    "stateProvince": "CA",
    "country": "US",
    "distance": 9.09190328481667
  },
  {
    "id": "rechmpNzVdDjN5oqq",
    "name": "Q01249",
    "lat": 33.8736662,
    "lng": -118.2948679,
    "retailer": "Food 4 Less",
    "street": "1299 Artesia Blvd",
    "city": "Gardena",
    "zipPostalCode": "90248",
    "stateProvince": "CA",
    "country": "US",
    "distance": 9.608884116758132
  },
  {
    "id": "recjuVDLwltZRBncb",
    "name": "Q01988",
    "lat": 33.9151071,
    "lng": -118.2646308,
    "retailer": "Payless Foods",
    "street": "620 E El Segundo Blvd",
    "city": "Los Angeles",
    "zipPostalCode": "90059",
    "stateProvince": "CA",
    "country": "US",
    "distance": 10.681992165752007
  },
  {
    "id": "recoAHOCfdywqFi3q",
    "name": "Q00409",
    "lat": 33.9024858,
    "lng": -118.2526065,
    "retailer": "Food 4 Less",
    "street": "1900 W Rosecrans Ave",
    "city": "Compton",
    "zipPostalCode": "90220",
    "stateProvince": "CA",
    "country": "US",
    "distance": 11.4574634136642
  },
  {
    "id": "recqEhR0m3Kdme3es",
    "name": "Q00391",
    "lat": 33.925697,
    "lng": -118.237897,
    "retailer": "Food 4 Less",
    "street": "11840 Wilmington Ave",
    "city": "Los Angeles",
    "zipPostalCode": "90059",
    "stateProvince": "CA",
    "country": "US",
    "distance": 12.193166905273204
  },
  {
    "id": "recg2m7xsgTEfaOqZ",
    "name": "Q00322",
    "lat": 33.7289017,
    "lng": -118.026751,
    "retailer": "Vons",
    "street": "5922 Edinger Ave",
    "city": "Huntington Beach",
    "zipPostalCode": "92649",
    "stateProvince": "CA",
    "country": "US",
    "distance": 1.1141185476815396
  },
  {
    "id": "recuGBY7GrxfuccDy",
    "name": "Q00325",
    "lat": 33.6808855,
    "lng": -118.0027806,
    "retailer": "Albertsons",
    "street": "7201 Yorktown Ave",
    "city": "Huntington Beach",
    "zipPostalCode": "92648",
    "stateProvince": "CA",
    "country": "US",
    "distance": 2.683080808080808
  },
  {
    "id": "receKbP4GDUe7EyiD",
    "name": "Q00662",
    "lat": 33.7604604,
    "lng": -118.0089116,
    "retailer": "Albertsons",
    "street": "6755 Westminster Blvd.",
    "city": "Westminster",
    "zipPostalCode": "92683",
    "stateProvince": "CA",
    "country": "US",
    "distance": 2.872599021713195
  },
  {
    "id": "rec98dioxqyHmeiwL",
    "name": "Q00483",
    "lat": 33.6772837,
    "lng": -117.986951,
    "retailer": "Albertsons",
    "street": "19640 Beach Blvd",
    "city": "Huntington Beach",
    "zipPostalCode": "92648",
    "stateProvince": "CA",
    "country": "US",
    "distance": 3.211867692674779
  },
  {
    "id": "rec18iSLymGnlEONO",
    "name": "Q00328",
    "lat": 33.7290517,
    "lng": -117.9566604,
    "retailer": "Albertsons",
    "street": "16061 Brookhurst St",
    "city": "Fountain Valley",
    "zipPostalCode": "92708",
    "stateProvince": "CA",
    "country": "US",
    "distance": 3.229887457249662
  },
  {
    "id": "recMEDSr8cHofsmxZ",
    "name": "Q01721",
    "lat": 33.6954314,
    "lng": -117.9559283,
    "retailer": "Ralphs",
    "street": "18405 Brookhurst St",
    "city": "Fountain Valley",
    "zipPostalCode": "92708",
    "stateProvince": "CA",
    "country": "US",
    "distance": 3.5884186351706036
  },
  {
    "id": "recbFS3FlUBRsBMKI",
    "name": "Q00717",
    "lat": 33.7901681,
    "lng": -118.0290381,
    "retailer": "Vons",
    "street": "11861 Valley View St",
    "city": "Garden Grove",
    "zipPostalCode": "92845",
    "stateProvince": "CA",
    "country": "US",
    "distance": 5.025650202815557
  },
  {
    "id": "recvXy3GFmCFEYExo",
    "name": "Q01711",
    "lat": 33.6719139,
    "lng": -117.9216559,
    "retailer": "Vons",
    "street": "2701 Harbor Blvd",
    "city": "Costa Mesa",
    "zipPostalCode": "92626",
    "stateProvince": "CA",
    "country": "US",
    "distance": 6.109942933269704
  },
  {
    "id": "recGRt1WlRZ5phcxs",
    "name": "Q00330",
    "lat": 33.8019412,
    "lng": -117.9378978,
    "retailer": "Food 4 Less",
    "street": "1616 W Katella Ave",
    "city": "Anaheim",
    "zipPostalCode": "92802",
    "stateProvince": "CA",
    "country": "US",
    "distance": 7.129613059731169
  },
  {
    "id": "recJ0cSXUxG5VSmPv",
    "name": "Q00320",
    "lat": 33.7181239,
    "lng": -117.886562,
    "retailer": "Food 4 Less",
    "street": "2140 S Bristol St",
    "city": "Santa Ana",
    "zipPostalCode": "92704",
    "stateProvince": "CA",
    "country": "US",
    "distance": 7.1880219518014785
  },
  {
    "id": "recDbxOM6iTqAcreN",
    "name": "Q00414",
    "lat": 33.6989864,
    "lng": -117.8864324,
    "retailer": "Vons",
    "street": "3650 S Bristol St",
    "city": "Santa Ana",
    "zipPostalCode": "92704",
    "stateProvince": "CA",
    "country": "US",
    "distance": 7.327830470054879
  },
  {
    "id": "recOjMaazfBz1rgDB",
    "name": "Q01781",
    "lat": 33.6318821,
    "lng": -117.9123644,
    "retailer": "Ralphs",
    "street": "380 E 17th St",
    "city": "Costa Mesa",
    "zipPostalCode": "92627",
    "stateProvince": "CA",
    "country": "US",
    "distance": 8.298412272329594
  },
  {
    "id": "recXn2OpgO2uQ2fwX",
    "name": "Q00654",
    "lat": 33.7915143,
    "lng": -118.1375262,
    "retailer": "Vons",
    "street": "1800-2000 Ximeno Ave",
    "city": "Long Beach",
    "zipPostalCode": "90815",
    "stateProvince": "CA",
    "country": "US",
    "distance": 8.815393104271056
  },
  {
    "id": "recKywqmHIYRhVtVF",
    "name": "Q00720",
    "lat": 33.7811608,
    "lng": -118.1541422,
    "retailer": "Food 4 Less",
    "street": "3210 E Anaheim St",
    "city": "Long Beach",
    "zipPostalCode": "90804",
    "stateProvince": "CA",
    "country": "US",
    "distance": 9.263401733874174
  },
  {
    "id": "recD89HMV5kijxxFX",
    "name": "Q00590",
    "lat": 33.6501469,
    "lng": -117.831352,
    "retailer": "Albertsons",
    "street": "4541 Campus Dr",
    "city": "Irvine",
    "zipPostalCode": "92612",
    "stateProvince": "CA",
    "country": "US",
    "distance": 11.409617831861926
  },
  {
    "id": "recK7xlwbA0O64771",
    "name": "Q00348",
    "lat": 33.7452048,
    "lng": -117.8128436,
    "retailer": "Albertsons",
    "street": "13270 Newport Ave",
    "city": "Tustin",
    "zipPostalCode": "92780",
    "stateProvince": "CA",
    "country": "US",
    "distance": 11.569931599459158
  },
  {
    "id": "recv07TKOvDDvaoQX",
    "name": "Q01019",
    "lat": 33.8054743,
    "lng": -118.1921677,
    "retailer": "Albertsons",
    "street": "101 E Willow St",
    "city": "Long Beach",
    "zipPostalCode": "90806",
    "stateProvince": "CA",
    "country": "US",
    "distance": 11.989357154219357
  },
  {
    "id": "recCvQHjKrXAWFjpT",
    "name": "Q00327",
    "lat": 33.9409539,
    "lng": -117.9943627,
    "retailer": "Vons",
    "street": "15740 La Forge St",
    "city": "Whittier",
    "zipPostalCode": "90603",
    "stateProvince": "CA",
    "country": "US",
    "distance": 1.4726497256024813
  },
  {
    "id": "recUXpcptwSmJ3SZa",
    "name": "Q01777",
    "lat": 33.8970954,
    "lng": -118.0075432,
    "retailer": "Albertsons",
    "street": "15200 Rosecrans Ave",
    "city": "La Mirada",
    "zipPostalCode": "90638",
    "stateProvince": "CA",
    "country": "US",
    "distance": 1.9498628012407537
  },
  {
    "id": "recPRGzdbCqOFwnde",
    "name": "Q00583",
    "lat": 33.9385325,
    "lng": -117.9663613,
    "retailer": "Albertsons",
    "street": "1800 W Whittier Blvd",
    "city": "La Habra",
    "zipPostalCode": "90631",
    "stateProvince": "CA",
    "country": "US",
    "distance": 2.7514316392269147
  },
  {
    "id": "recTv8e9sLAFiCiHJ",
    "name": "Q00707",
    "lat": 33.9949708,
    "lng": -117.9672764,
    "retailer": "Vons",
    "street": "2122 S Hacienda Blvd",
    "city": "Hacienda Heights",
    "zipPostalCode": "91745",
    "stateProvince": "CA",
    "country": "US",
    "distance": 5.458745923804979
  },
  {
    "id": "recgZj5vEDh1Hp9hr",
    "name": "Q01726",
    "lat": 33.8814007,
    "lng": -117.9252663,
    "retailer": "Ralphs",
    "street": "1121 N Harbor Blvd",
    "city": "Fullerton",
    "zipPostalCode": "92832",
    "stateProvince": "CA",
    "country": "US",
    "distance": 5.799878708343275
  },
  {
    "id": "recYuZ4LT1L8dJVRQ",
    "name": "Q01668",
    "lat": 33.8588824,
    "lng": -117.9410213,
    "retailer": "Food 4 Less",
    "street": "914 W Orangethorpe Ave",
    "city": "Fullerton",
    "zipPostalCode": "92832",
    "stateProvince": "CA",
    "country": "US",
    "distance": 6.111185675654179
  },
  {
    "id": "recWyAeJXRmUx7GG3",
    "name": "Q00739",
    "lat": 33.9359952,
    "lng": -118.1271349,
    "retailer": "Ralphs",
    "street": "8626 Firestone Blvd",
    "city": "Downey",
    "zipPostalCode": "90241",
    "stateProvince": "CA",
    "country": "US",
    "distance": 6.67974031655134
  },
  {
    "id": "rec09Zc5CSrxO6wNr",
    "name": "Q00740",
    "lat": 33.8569136,
    "lng": -118.1153768,
    "retailer": "Vons",
    "street": "5500 Woodruff Ave",
    "city": "Lakewood",
    "zipPostalCode": "90713",
    "stateProvince": "CA",
    "country": "US",
    "distance": 7.604340650600492
  },
  {
    "id": "recuKOx9Yy1iZlJB5",
    "name": "Q00311",
    "lat": 33.9052371,
    "lng": -118.1444952,
    "retailer": "Food 4 Less",
    "street": "13525 Lakewood Blvd",
    "city": "Downey",
    "zipPostalCode": "90242",
    "stateProvince": "CA",
    "country": "US",
    "distance": 7.757197963890877
  },
  {
    "id": "recpsM6oz49v6pBeY",
    "name": "Q00332",
    "lat": 33.8900282,
    "lng": -117.8723507,
    "retailer": "Albertsons",
    "street": "1930 N Placentia Ave",
    "city": "Fullerton",
    "zipPostalCode": "92831",
    "stateProvince": "CA",
    "country": "US",
    "distance": 8.347500596516344
  },
  {
    "id": "recfFHHB0rceBthLE",
    "name": "Q00317",
    "lat": 33.8354914,
    "lng": -118.1152568,
    "retailer": "Vons",
    "street": "4226 Woodruff Ave",
    "city": "Lakewood",
    "zipPostalCode": "90713",
    "stateProvince": "CA",
    "country": "US",
    "distance": 8.59791318698799
  },
  {
    "id": "recDZomw20aubuSZL",
    "name": "Q01286",
    "lat": 33.8588407,
    "lng": -118.1522723,
    "retailer": "WinCo Foods",
    "street": "3400 E South St",
    "city": "Lakewood",
    "zipPostalCode": "90805",
    "stateProvince": "CA",
    "country": "US",
    "distance": 9.29198480871709
  },
  {
    "id": "rect6R5RYC147DUky",
    "name": "Q00711",
    "lat": 33.9706927,
    "lng": -118.1661175,
    "retailer": "Food 4 Less",
    "street": "6901 Eastern Ave",
    "city": "Bell Gardens",
    "zipPostalCode": "90201",
    "stateProvince": "CA",
    "country": "US",
    "distance": 9.416880418356795
  },
  {
    "id": "recLLls5QWRwrh2JH",
    "name": "Q02394",
    "lat": 33.8769436,
    "lng": -118.1675807,
    "retailer": "Food 4 Less",
    "street": "6700 Cherry Ave",
    "city": "Long Beach",
    "zipPostalCode": "90805",
    "stateProvince": "CA",
    "country": "US",
    "distance": 9.560417163763619
  },
  {
    "id": "recb5yLQZMWdOHsDj",
    "name": "Q00491",
    "lat": 33.831224,
    "lng": -117.8885341,
    "retailer": "Albertsons",
    "street": "810 S State College Blvd",
    "city": "Anaheim",
    "zipPostalCode": "92806",
    "stateProvince": "CA",
    "country": "US",
    "distance": 9.592728465759961
  },
  {
    "id": "rec4BZqb2AhGmhhtw",
    "name": "Q00591",
    "lat": 33.83384,
    "lng": -117.837555,
    "retailer": "Vons",
    "street": "2684 N Tustin St",
    "city": "Orange",
    "zipPostalCode": "92865",
    "stateProvince": "CA",
    "country": "US",
    "distance": 11.815373220392905
  },
  {
    "id": "recY5D2boG9RIPPIw",
    "name": "Q00418",
    "lat": 33.9756675,
    "lng": -118.2296367,
    "retailer": "Food 4 Less",
    "street": "6920 Santa Fe Ave",
    "city": "Huntington Park",
    "zipPostalCode": "90255",
    "stateProvince": "CA",
    "country": "US",
    "distance": 12.996599856836076
  },
  {
    "id": "rectKEzxMdzVNuYbg",
    "name": "Q00469",
    "lat": 34.1533464,
    "lng": -118.4566397,
    "retailer": "Pavilions",
    "street": "14845 Ventura Blvd",
    "city": "Sherman Oaks",
    "zipPostalCode": "91403",
    "stateProvince": "CA",
    "country": "US",
    "distance": 1.5739332299371669
  },
  {
    "id": "recFYzxmzNBLaCzxq",
    "name": "Q02395",
    "lat": 34.1570587,
    "lng": -118.4917689,
    "retailer": "Gelson's Market",
    "street": "16450 Ventura Blvd",
    "city": "Encino",
    "zipPostalCode": "91436",
    "stateProvince": "CA",
    "country": "US",
    "distance": 2.9707756700866934
  },
  {
    "id": "reca19lxbSj8iFT8E",
    "name": "Q00415",
    "lat": 34.0835333,
    "lng": -118.38697,
    "retailer": "Pavilions",
    "street": "8969 Santa Monica Blvd",
    "city": "West Hollywood",
    "zipPostalCode": "90069",
    "stateProvince": "CA",
    "country": "US",
    "distance": 4.903240077944802
  },
  {
    "id": "recyPeNZXXCikuS5m",
    "name": "Q02388",
    "lat": 34.0574863,
    "lng": -118.4183317,
    "retailer": "Gelson's Market",
    "street": "10250 Santa Monica Blvd",
    "city": "Los Angeles",
    "zipPostalCode": "90067",
    "stateProvince": "CA",
    "country": "US",
    "distance": 5.418356796309552
  },
  {
    "id": "rect5dJKsIUQiSC7g",
    "name": "Q00370",
    "lat": 34.2007069,
    "lng": -118.4941865,
    "retailer": "Food 4 Less",
    "street": "16530 Sherman Way",
    "city": "Van Nuys",
    "zipPostalCode": "91406",
    "stateProvince": "CA",
    "country": "US",
    "distance": 5.423327765847451
  },
  {
    "id": "recqN50wXsjsnw2lF",
    "name": "Q00314",
    "lat": 34.1551624,
    "lng": -118.3465601,
    "retailer": "Vons",
    "street": "301 N Pass Ave",
    "city": "Burbank",
    "zipPostalCode": "91505",
    "stateProvince": "CA",
    "country": "US",
    "distance": 6.168351825340014
  },
  {
    "id": "recTuN8IaN45WFDa2",
    "name": "Q00411",
    "lat": 34.1925163,
    "lng": -118.5325566,
    "retailer": "Food 4 Less",
    "street": "18318 Vanowen St",
    "city": "Los Angeles",
    "zipPostalCode": "91335",
    "stateProvince": "CA",
    "country": "US",
    "distance": 6.335500676051857
  },
  {
    "id": "recj1umn0R9AfMUcf",
    "name": "Q00412",
    "lat": 34.2162953,
    "lng": -118.3897465,
    "retailer": "Food 4 Less",
    "street": "8035 Webb Ave",
    "city": "North Hollywood",
    "zipPostalCode": "91605",
    "stateProvince": "CA",
    "country": "US",
    "distance": 6.831976258649487
  },
  {
    "id": "recdyw7tpLF73GRUM",
    "name": "Q00419",
    "lat": 34.2280585,
    "lng": -118.4855589,
    "retailer": "Food 4 Less",
    "street": "16208 Parthenia St",
    "city": "North Hills",
    "zipPostalCode": "91343",
    "stateProvince": "CA",
    "country": "US",
    "distance": 6.99663962459238
  },
  {
    "id": "rec1wwFSkd8QInT6t",
    "name": "Q02390",
    "lat": 34.1058984,
    "lng": -118.3176116,
    "retailer": "Gelson's Market",
    "street": "5877 Franklin Ave",
    "city": "Los Angeles",
    "zipPostalCode": "90028",
    "stateProvince": "CA",
    "country": "US",
    "distance": 7.799451204963015
  },
  {
    "id": "recgSW0zGavtRAEqF",
    "name": "Q01830",
    "lat": 34.047716,
    "lng": -118.3394374,
    "retailer": "Ralphs",
    "street": "4760 W Pico Blvd",
    "city": "Los Angeles",
    "zipPostalCode": "90019",
    "stateProvince": "CA",
    "country": "US",
    "distance": 8.584864391951005
  },
  {
    "id": "recwb2LREmyOxu3Rb",
    "name": "Q02255",
    "lat": 34.1474259,
    "lng": -118.6129867,
    "retailer": "Gelson's Market",
    "street": "22277 Mulholland Hwy",
    "city": "Calabasas",
    "zipPostalCode": "91302",
    "stateProvince": "CA",
    "country": "US",
    "distance": 9.378976775630319
  },
  {
    "id": "reckPZ99j55GLsq5e",
    "name": "Q00425",
    "lat": 34.0969729,
    "lng": -118.2880171,
    "retailer": "Vons",
    "street": "4520 W Sunset Blvd",
    "city": "Los Angeles",
    "zipPostalCode": "90027",
    "stateProvince": "CA",
    "country": "US",
    "distance": 9.592728465759961
  },
  {
    "id": "recGnxQP25KfCcK9d",
    "name": "Q00336",
    "lat": 34.0699966,
    "lng": -118.2909401,
    "retailer": "Vons",
    "street": "3461 W 3rd St",
    "city": "Los Angeles",
    "zipPostalCode": "90020",
    "stateProvince": "CA",
    "country": "US",
    "distance": 10.06372782947586
  },
  {
    "id": "recCllejaQfOkEmJZ",
    "name": "Q00699",
    "lat": 34.1294353,
    "lng": -118.258601,
    "retailer": "Vons",
    "street": "311 W Los Feliz Rd",
    "city": "Glendale",
    "zipPostalCode": "91204",
    "stateProvince": "CA",
    "country": "US",
    "distance": 10.979007595641454
  },
  {
    "id": "recJqlSqS9PMtitiV",
    "name": "Q00514",
    "lat": 34.1895279,
    "lng": -118.6413607,
    "retailer": "Pavilions",
    "street": "6534 Platt Ave",
    "city": "Los Angeles",
    "zipPostalCode": "91307",
    "stateProvince": "CA",
    "country": "US",
    "distance": 11.654438081603434
  },
  {
    "id": "recK0Ckfzc1bOnIAH",
    "name": "Q00417",
    "lat": 34.1549746,
    "lng": -118.2447133,
    "retailer": "Vons",
    "street": "561 N Glendale Ave",
    "city": "Glendale",
    "zipPostalCode": "91206",
    "stateProvince": "CA",
    "country": "US",
    "distance": 11.88620953630796
  },
  {
    "id": "recZltHIAzrjlZJIV",
    "name": "Q01671",
    "lat": 34.2311403,
    "lng": -118.2501954,
    "retailer": "Vons",
    "street": "3233 Foothill Blvd",
    "city": "La Crescenta-Montrose",
    "zipPostalCode": "91214",
    "stateProvince": "CA",
    "country": "US",
    "distance": 13.377500397677561
  },
  {
    "id": "recMyQnN3fS5PyNmE",
    "name": "Q01713",
    "lat": 34.2235029,
    "lng": -118.2366875,
    "retailer": "Ralphs",
    "street": "2675 Foothill Blvd",
    "city": "La Crescenta-Montrose",
    "zipPostalCode": "91214",
    "stateProvince": "CA",
    "country": "US",
    "distance": 13.793197725284339
  },
  {
    "id": "recVIoupyVu8uY8jg",
    "name": "Q01694",
    "lat": 34.2997045,
    "lng": -118.4419571,
    "retailer": "Food 4 Less",
    "street": "12689 Glenoaks Blvd",
    "city": "Los Angeles",
    "zipPostalCode": "91342",
    "stateProvince": "CA",
    "country": "US",
    "distance": 2.644555794162093
  },
  {
    "id": "recdGBENpRDoXh1sm",
    "name": "Q02398",
    "lat": 34.2754089,
    "lng": -118.4123853,
    "retailer": "Food 4 Less",
    "street": "12765 Van Nuys Blvd",
    "city": "Pacoima",
    "zipPostalCode": "91331",
    "stateProvince": "CA",
    "country": "US",
    "distance": 4.79884971764893
  },
  {
    "id": "recmo7wEuFEBeEqdz",
    "name": "Q00702",
    "lat": 34.2709792,
    "lng": -118.4988955,
    "retailer": "Vons",
    "street": "16830 San Fernando Mission Blvd",
    "city": "Granada Hills",
    "zipPostalCode": "91344",
    "stateProvince": "CA",
    "country": "US",
    "distance": 5.361190646623717
  },
  {
    "id": "reclXDB51BmtrYdkj",
    "name": "Q01656",
    "lat": 34.4140883,
    "lng": -118.470885,
    "retailer": "Food 4 Less",
    "street": "19200 Soledad Canyon Rd",
    "city": "Santa Clarita",
    "zipPostalCode": "91351",
    "stateProvince": "CA",
    "country": "US",
    "distance": 5.439483416845621
  },
  {
    "id": "recPikksLu4jKKfCu",
    "name": "Q01893",
    "lat": 34.2583055,
    "lng": -118.4682521,
    "retailer": "Vons",
    "street": "10321 Sepulveda Blvd",
    "city": "Mission Hills",
    "zipPostalCode": "91345",
    "stateProvince": "CA",
    "country": "US",
    "distance": 5.559408056947427
  },
  {
    "id": "recrqpAzIIOrUVQuy",
    "name": "Q01184",
    "lat": 34.3774741,
    "lng": -118.5576496,
    "retailer": "Vons",
    "street": "24160 Lyons Ave",
    "city": "Newhall",
    "zipPostalCode": "91321",
    "stateProvince": "CA",
    "country": "US",
    "distance": 6.728207269545852
  },
  {
    "id": "reck1ZZGTe1AnKfq0",
    "name": "Q00319",
    "lat": 34.2438571,
    "lng": -118.4175881,
    "retailer": "Food 4 Less",
    "street": "9635 Laurel Canyon Blvd",
    "city": "Arleta",
    "zipPostalCode": "91331",
    "stateProvince": "CA",
    "country": "US",
    "distance": 6.728828640738089
  },
  {
    "id": "recnt1dmJYONlpatj",
    "name": "Q01690",
    "lat": 34.382699,
    "lng": -118.5744229,
    "retailer": "Ralphs",
    "street": "24975 Pico Canyon Rd",
    "city": "Stevenson Ranch",
    "zipPostalCode": "91381",
    "stateProvince": "CA",
    "country": "US",
    "distance": 7.7497415095840285
  },
  {
    "id": "recJ382sEwMjlRbYv",
    "name": "Q01821",
    "lat": 34.427021,
    "lng": -118.5352017,
    "retailer": "Vons",
    "street": "26518 Bouquet Canyon Rd",
    "city": "Saugus",
    "zipPostalCode": "91350",
    "stateProvince": "CA",
    "country": "US",
    "distance": 7.872773005647021
  },
  {
    "id": "recKji9lJoSQeKo9b",
    "name": "Q01216",
    "lat": 34.3911952,
    "lng": -118.5720926,
    "retailer": "Vons",
    "street": "25850 The Old Rd",
    "city": "Valencia",
    "zipPostalCode": "91381",
    "stateProvince": "CA",
    "country": "US",
    "distance": 7.888307285452954
  },
  {
    "id": "rec6QgBm6HwURNqQF",
    "name": "Q00577",
    "lat": 34.2591656,
    "lng": -118.3011918,
    "retailer": "Vons",
    "street": "7789 Foothill Blvd",
    "city": "Los Angeles",
    "zipPostalCode": "91042",
    "stateProvince": "CA",
    "country": "US",
    "distance": 10.09168953312654
  },
  {
    "id": "recqiZTYdSL1ap1JL",
    "name": "Q00335",
    "lat": 34.1499857,
    "lng": -118.002033,
    "retailer": "Vons",
    "street": "130 W Foothill Blvd",
    "city": "Monrovia",
    "zipPostalCode": "91016",
    "stateProvince": "CA",
    "country": "US",
    "distance": 1.4080271216097986
  },